[
  {
    "name": "Philadelphia VA Medical Center - PatriotCaf√©",
    "organization": "VA Philadelphia Health Care",
    "category": "food",
    "subcategory": "meal-program",
    "description": "Dining facility at Corporal Michael J. Crescenz VA Medical Center providing freshly prepared breakfast and lunch with traditional comfort food, specialized menu selections, and healthy choices",
    "phone": "215-823-5800",
    "website": "https://www.vacanteen.va.gov/VACANTEEN/FoodOperations.asp",
    "address": "Building 1 First Floor, 3900 Woodland Avenue",
    "city": "Philadelphia",
    "state": "PA",
    "zip": "19104",
    "eligibility": {
      "veteran_status_required": true,
      "docs_required": ["VA health enrollment"]
    },
    "food_details": {
      "distribution_schedule": "Monday-Friday 7:00 AM - 7:00 PM ET",
      "quantity_limit": "Not specified",
      "id_required": true
    },
    "intake": {
      "phone": "215-823-5800",
      "hours": "Monday-Friday 7:00 AM - 7:00 PM ET",
      "notes": "Hot and cold entrees, beverages, and desserts available; closed weekends"
    },
    "source_url": "https://www.va.gov/philadelphia-health-care/locations/corporal-michael-j-crescenz-department-of-veterans-affairs/",
    "confidence": 0.92
  },
  {
    "name": "American Legion Service Office - Philadelphia",
    "organization": "American Legion",
    "category": "food",
    "subcategory": "food-pantry",
    "description": "American Legion Service Office providing veterans assistance and food services in Philadelphia metropolitan region",
    "phone": "215-381-2032",
    "website": "https://philadelphiaserviceoffice.com/",
    "address": "606 E Main St Suite 1003",
    "city": "Lansdale",
    "state": "PA",
    "zip": "19446",
    "eligibility": {
      "veteran_status_required": true,
      "docs_required": ["Proof of veteran status"]
    },
    "food_details": {
      "distribution_schedule": "Call for schedule",
      "quantity_limit": "Not specified",
      "id_required": true
    },
    "intake": {
      "phone": "215-381-2032",
      "hours": "Monday-Friday",
      "notes": "Serves Philadelphia, Montgomery, Chester, Bucks, and Delaware counties"
    },
    "source_url": "https://philadelphiaserviceoffice.com/",
    "confidence": 0.88
  },
  {
    "name": "VFW Department of Pennsylvania - Philadelphia Service Office",
    "organization": "VFW Department of Pennsylvania",
    "category": "food",
    "subcategory": "food-pantry",
    "description": "Veterans of Foreign Wars Service Office providing food and veteran benefits assistance in Philadelphia area",
    "phone": "215-381-3123",
    "website": "https://www.vfwpahq.org/",
    "address": "5000 Wissahickon Avenue",
    "city": "Philadelphia",
    "state": "PA",
    "zip": "19101",
    "eligibility": {
      "veteran_status_required": true,
      "docs_required": ["Proof of veteran status"]
    },
    "food_details": {
      "distribution_schedule": "Monday-Friday",
      "quantity_limit": "Not specified",
      "id_required": true
    },
    "intake": {
      "phone": "215-381-3123",
      "hours": "Monday-Friday 8:00 AM - 5:00 PM",
      "notes": "VFW service office providing veteran support and food assistance"
    },
    "source_url": "https://www.vfwpahq.org/",
    "confidence": 0.90
  },
  {
    "name": "Philadelphia Food Finder Directory",
    "organization": "Philadelphia Department of Health & Human Services",
    "category": "food",
    "subcategory": "food-pantry",
    "description": "Searchable directory to find food resources, food pantries, and meal programs throughout Philadelphia by zip code",
    "phone": "215-645-2947",
    "website": "https://phillyfoodfinder.org/",
    "address": "City of Philadelphia",
    "city": "Philadelphia",
    "state": "PA",
    "eligibility": {
      "veteran_status_required": false,
      "docs_required": []
    },
    "food_details": {
      "distribution_schedule": "24/7 online access",
      "quantity_limit": "Varies by location",
      "id_required": false
    },
    "intake": {
      "phone": "311 or 1-800-548-6479",
      "hours": "24/7",
      "notes": "Text your ZIP code to 1-800-548-6479; call 311 for free food and meal information"
    },
    "source_url": "https://phillyfoodfinder.org/",
    "confidence": 0.88
  },
  {
    "name": "Veterans Place Food Pantry & Kitchen",
    "organization": "Veterans Place of Washington Boulevard",
    "category": "food",
    "subcategory": "food-pantry",
    "description": "Food pantry and commercial kitchen providing meal preparation, cooking education, and food assistance to veterans with laundry, shower facilities, computer lab, and resource center",
    "phone": "412-683-4700",
    "website": "https://www.veteransplaceusa.org/",
    "address": "945 Washington Boulevard",
    "city": "Pittsburgh",
    "state": "PA",
    "zip": "15206",
    "eligibility": {
      "veteran_status_required": true,
      "docs_required": ["Any military service - honorable discharge not required"]
    },
    "food_details": {
      "distribution_schedule": "Monday-Friday 8:00 AM - 3:00 PM",
      "quantity_limit": "Not specified",
      "id_required": true
    },
    "intake": {
      "phone": "412-683-4700",
      "hours": "Monday-Friday 8:00 AM - 3:00 PM",
      "notes": "Includes commercial kitchen, laundry, shower facilities, computer lab; anyone with one day military service eligible"
    },
    "source_url": "https://www.veteransplaceusa.org/",
    "confidence": 0.92
  },
  {
    "name": "Veterans Leadership Program (VLP) Food Pantry",
    "organization": "Veterans Leadership Program of Western PA",
    "category": "food",
    "subcategory": "food-pantry",
    "description": "Food assistance program operated by Veterans Leadership Program providing supplemental food and support services to veterans",
    "phone": "412-481-8200",
    "website": "https://www.veteransleadershipprogram.org/",
    "address": "2934 Smallman Street",
    "city": "Pittsburgh",
    "state": "PA",
    "zip": "15201",
    "eligibility": {
      "veteran_status_required": true,
      "docs_required": ["Proof of veteran status"]
    },
    "food_details": {
      "distribution_schedule": "Call for schedule",
      "quantity_limit": "Not specified",
      "id_required": true
    },
    "intake": {
      "phone": "412-481-8200",
      "hours": "Monday-Friday 8:30 AM - 4:30 PM",
      "notes": "Supplemental food assistance; partners with Greater Pittsburgh Community Food Bank for Military Share distribution"
    },
    "source_url": "https://www.veteransleadershipprogram.org/",
    "confidence": 0.90
  },
  {
    "name": "Pittsburgh VA Medical Center - Nutrition Services",
    "organization": "VA Pittsburgh Health Care",
    "category": "food",
    "subcategory": "meal-program",
    "description": "VA Medical Center providing patient nutrition services and dietary care for enrolled veterans",
    "phone": "866-482-7488",
    "website": "https://www.va.gov/pittsburgh-health-care/locations/pittsburgh-va-medical-center-university-drive/",
    "address": "University Drive",
    "city": "Pittsburgh",
    "state": "PA",
    "eligibility": {
      "veteran_status_required": true,
      "docs_required": ["VA health enrollment"]
    },
    "food_details": {
      "distribution_schedule": "Medical facility hours",
      "quantity_limit": "Patient meals",
      "id_required": true
    },
    "intake": {
      "phone": "866-482-7488",
      "hours": "Facility hours",
      "notes": "Nutrition and dietary care services available to enrolled veterans"
    },
    "source_url": "https://www.va.gov/pittsburgh-health-care/locations/pittsburgh-va-medical-center-university-drive/",
    "confidence": 0.89
  },
  {
    "name": "Greater Pittsburgh Community Food Bank - Military Share",
    "organization": "Greater Pittsburgh Community Food Bank",
    "category": "food",
    "subcategory": "food-pantry",
    "description": "Community food bank operating Military Share program in partnership with Veterans Leadership Program providing food assistance to military-connected families",
    "phone": "412-460-3663",
    "website": "https://pittsburghfoodbank.org/",
    "address": "Pittsburgh area",
    "city": "Pittsburgh",
    "state": "PA",
    "eligibility": {
      "veteran_status_required": true,
      "docs_required": ["Proof of military connection"]
    },
    "food_details": {
      "distribution_schedule": "Varies by location",
      "quantity_limit": "Not specified",
      "id_required": false
    },
    "intake": {
      "phone": "412-460-3663",
      "hours": "Call for distribution schedule",
      "notes": "Military Share program through partnership with Veterans Leadership Program"
    },
    "source_url": "https://pittsburghfoodbank.org/",
    "confidence": 0.87
  },
  {
    "name": "Pittsburgh Dream Center - Mobile Food Bank",
    "organization": "Pittsburgh Dream Center",
    "category": "food",
    "subcategory": "mobile-distribution",
    "description": "Mobile food bank serving East Pittsburgh neighborhoods with weekly and monthly distribution of groceries and food assistance",
    "phone": "412-805-0227",
    "website": "https://www.pghdreamcenter.org/",
    "address": "908 Evans Avenue",
    "city": "McKeesport",
    "state": "PA",
    "zip": "15132",
    "eligibility": {
      "veteran_status_required": false,
      "docs_required": []
    },
    "food_details": {
      "distribution_schedule": "Weekly and monthly basis",
      "quantity_limit": "Not specified",
      "id_required": false
    },
    "intake": {
      "phone": "412-805-0227",
      "hours": "Call for schedule",
      "notes": "Mobile food bank serves east side Pittsburgh neighborhoods; check website for specific stop locations and times"
    },
    "source_url": "https://www.pghdreamcenter.org/events-schedule/mobile-food-bank-nyr76-amahw-ddkar-7p2yy-w6jdn-7nelh-e2nfx-s6gds-en248-5n43w-gn8yt",
    "confidence": 0.89
  },
  {
    "name": "Central PA Food Bank - Military Share Program",
    "organization": "Central Pennsylvania Food Bank",
    "category": "food",
    "subcategory": "food-pantry",
    "description": "Food bank operating Military Share program providing fresh food and food assistance specifically for military veterans and their families",
    "phone": "717-564-1700",
    "website": "https://www.centralpafoodbank.org/who-we-are/our-programs/militaryshare/",
    "address": "Central Pennsylvania",
    "city": "Mechanicsburg",
    "state": "PA",
    "eligibility": {
      "veteran_status_required": true,
      "docs_required": ["Proof of military service"]
    },
    "food_details": {
      "distribution_schedule": "Varies by location",
      "quantity_limit": "Not specified",
      "id_required": false
    },
    "intake": {
      "phone": "717-564-1700 or 570-321-8023",
      "hours": "Call for schedule",
      "notes": "Military Share program serving veterans across Central PA; check website for distribution locations"
    },
    "source_url": "https://www.centralpafoodbank.org/who-we-are/our-programs/militaryshare/",
    "confidence": 0.88
  },
  {
    "name": "Geauga County Veteran Food Pantry",
    "organization": "Geauga County Veteran Food Pantry",
    "category": "food",
    "subcategory": "food-pantry",
    "description": "Food pantry dedicated to serving honorably discharged veterans, active duty, and their families and dependents in Geauga County with curbside and home delivery available",
    "phone": "440-901-4030",
    "website": "https://www.geaugacountyveteranfoodpantry.com/",
    "address": "13211 Aquilla Road, Suite B",
    "city": "Chardon",
    "state": "OH",
    "zip": "44024",
    "eligibility": {
      "veteran_status_required": true,
      "docs_required": ["Honorable discharge documentation"]
    },
    "food_details": {
      "distribution_schedule": "Every Friday 9:30 AM - 1:30 PM",
      "quantity_limit": "Not specified",
      "id_required": true
    },
    "intake": {
      "phone": "440-901-4030 or 440-279-1860",
      "hours": "Friday 9:30 AM - 1:30 PM",
      "notes": "Curbside and home delivery available; register with Geauga County Veterans Services at 440-279-1860"
    },
    "source_url": "https://www.geaugacountyveteranfoodpantry.com/",
    "confidence": 0.94
  },
  {
    "name": "M.A.S.H. Pantry (Cleveland Area)",
    "organization": "M.A.S.H. Pantry and Resource Center",
    "category": "food",
    "subcategory": "food-pantry",
    "description": "Military and Service Heroes Pantry providing food and basic needs to American veterans, military families and survivors across Ohio",
    "phone": "614-522-1555",
    "website": "https://www.mashpantry.org/",
    "address": "648 Clymer Road, Suite 113",
    "city": "Marysville",
    "state": "OH",
    "zip": "43040",
    "eligibility": {
      "veteran_status_required": true,
      "docs_required": ["Proof of military service"]
    },
    "food_details": {
      "distribution_schedule": "Call for hours",
      "quantity_limit": "Not specified",
      "id_required": true
    },
    "intake": {
      "phone": "614-522-1555",
      "hours": "Call for hours",
      "notes": "Multiple locations across Ohio; provides food, clothing, and personal care items to veterans and military families"
    },
    "source_url": "https://www.mashpantry.org/",
    "confidence": 0.86
  },
  {
    "name": "Greater Cleveland Food Bank",
    "organization": "Greater Cleveland Food Bank",
    "category": "food",
    "subcategory": "food-pantry",
    "description": "Northeast Ohio's largest hunger-relief organization providing food assistance and resources to food-insecure individuals and families including veterans",
    "phone": "216-738-2067",
    "website": "https://www.greaterclevelandfoodbank.org/",
    "address": "13815 Coit Road",
    "city": "Cleveland",
    "state": "OH",
    "zip": "44110",
    "eligibility": {
      "veteran_status_required": false,
      "docs_required": []
    },
    "food_details": {
      "distribution_schedule": "Multiple locations throughout Cleveland area",
      "quantity_limit": "Not specified",
      "id_required": false
    },
    "intake": {
      "phone": "216-738-2067",
      "hours": "Call for schedule",
      "notes": "Multiple distribution locations; serves all income-eligible individuals including veterans"
    },
    "source_url": "https://www.greaterclevelandfoodbank.org/",
    "confidence": 0.89
  },
  {
    "name": "M.A.S.H. Pantry - Grove City",
    "organization": "M.A.S.H. Pantry and Resource Center",
    "category": "food",
    "subcategory": "food-pantry",
    "description": "Military and Service Heroes Pantry in Grove City providing food, clothing, and personal care items to American veterans and military families",
    "phone": "614-522-1555",
    "website": "https://www.mashpantry.org/",
    "address": "2996 Columbus Street",
    "city": "Grove City",
    "state": "OH",
    "zip": "43123",
    "eligibility": {
      "veteran_status_required": true,
      "docs_required": ["Proof of military service"]
    },
    "food_details": {
      "distribution_schedule": "1st and 3rd Saturday 8:30 AM - 12:00 PM",
      "quantity_limit": "Not specified",
      "id_required": true
    },
    "intake": {
      "phone": "614-522-1555",
      "hours": "1st and 3rd Saturday 8:30 AM - 12:00 PM",
      "notes": "Provides food, clothing, and personal care items to veterans and military families"
    },
    "source_url": "https://www.mashpantry.org/",
    "confidence": 0.91
  },
  {
    "name": "Veterans Food Bank - Military Veterans Resource Center (MVRC)",
    "organization": "Military Veterans Resource Center",
    "category": "food",
    "subcategory": "food-pantry",
    "description": "Ohio's largest food bank dedicated exclusively to feeding veterans and their families with 15 meals per month per family",
    "phone": "614-636-4634",
    "website": "https://milvetsrc.org/",
    "address": "4889 Sinclair Road",
    "city": "Grove City",
    "state": "OH",
    "zip": "43229",
    "eligibility": {
      "veteran_status_required": true,
      "docs_required": ["Proof of veteran status"]
    },
    "food_details": {
      "distribution_schedule": "Monday-Friday 8:30 AM - 4:00 PM",
      "quantity_limit": "15 meals per family per month",
      "id_required": true
    },
    "intake": {
      "phone": "614-636-4634 or 614-230-0662",
      "hours": "Monday-Friday 8:30 AM - 4:00 PM",
      "notes": "Covers Delaware, Fairfield, Franklin, Licking, and Union counties; service is free"
    },
    "source_url": "https://milvetsrc.org/",
    "confidence": 0.93
  },
  {
    "name": "Soldiers' Angels Detroit Food Pantry",
    "organization": "Soldiers' Angels",
    "category": "food",
    "subcategory": "food-pantry",
    "description": "Food pantry dedicated to serving veterans with daily assistance and support from Detroit community partners",
    "phone": "210-629-0020",
    "website": "https://soldiersangels.org/food-resources/",
    "address": "Detroit Metropolitan Area",
    "city": "Detroit",
    "state": "MI",
    "eligibility": {
      "veteran_status_required": true,
      "docs_required": ["Proof of military service"]
    },
    "food_details": {
      "distribution_schedule": "Daily assistance available",
      "quantity_limit": "Not specified",
      "id_required": true
    },
    "intake": {
      "phone": "210-629-0020",
      "hours": "Call for schedule",
      "notes": "Food pantry funded by Detroit Pistons; serves veterans daily"
    },
    "source_url": "https://soldiersangels.org/food-resources/",
    "confidence": 0.85
  },
  {
    "name": "Soldiers' Angels at American Legion Joe Louis Post 375",
    "organization": "Soldiers' Angels / American Legion Joe Louis Post 375",
    "category": "food",
    "subcategory": "food-pantry",
    "description": "Monthly food distribution event providing grocery assistance to over 200 low-income veteran families with volunteer support",
    "phone": "313-366-6904",
    "website": "https://soldiersangels.org/venue/american-legion-joe-louis-post-375-19486-sherwood-st-detroit-mi-48234/",
    "address": "19486 Sherwood Street",
    "city": "Detroit",
    "state": "MI",
    "zip": "48234",
    "eligibility": {
      "veteran_status_required": true,
      "docs_required": ["Proof of veteran status"]
    },
    "food_details": {
      "distribution_schedule": "2nd Thursday of month, 12:00 PM - 2:00 PM",
      "quantity_limit": "Not specified",
      "id_required": true
    },
    "intake": {
      "phone": "313-366-6904",
      "hours": "2nd Thursday 12:00 PM - 2:00 PM",
      "notes": "Monthly food distribution with volunteers packing groceries; serves 200+ veteran families"
    },
    "source_url": "https://soldiersangels.org/venue/american-legion-joe-louis-post-375-19486-sherwood-st-detroit-mi-48234/",
    "confidence": 0.90
  },
  {
    "name": "Detroit Veterans Housing Program",
    "organization": "Volunteers of America Michigan",
    "category": "food",
    "subcategory": "meal-program",
    "description": "Veterans housing facility providing 3 meals per day, 7 days a week along with case management, employment assistance, and health services",
    "phone": "313-463-7067",
    "website": "https://www.voami.org/services/detroit-veteran/",
    "address": "253 East Milwaukee Avenue",
    "city": "Detroit",
    "state": "MI",
    "zip": "48202",
    "eligibility": {
      "veteran_status_required": true,
      "docs_required": ["Proof of veteran status"]
    },
    "food_details": {
      "distribution_schedule": "3 meals daily, 7 days per week",
      "quantity_limit": "Full meals included in housing",
      "id_required": true
    },
    "intake": {
      "phone": "313-463-7067",
      "hours": "Call for intake hours",
      "notes": "60-bed facility with case management, employment assistance, and mental health services"
    },
    "source_url": "https://www.voami.org/services/detroit-veteran/",
    "confidence": 0.91
  },
  {
    "name": "John D. Dingell VA Medical Center - Nutrition Services",
    "organization": "VA Detroit Health Care",
    "category": "food",
    "subcategory": "meal-program",
    "description": "VA Medical Center providing nutrition services and patient meals to enrolled veterans",
    "phone": "313-576-1000",
    "website": "https://www.va.gov/detroit-health-care/locations/john-d-dingell-department-of-veterans-affairs-medical-center/",
    "address": "4646 John R Street",
    "city": "Detroit",
    "state": "MI",
    "zip": "48201",
    "eligibility": {
      "veteran_status_required": true,
      "docs_required": ["VA health enrollment"]
    },
    "food_details": {
      "distribution_schedule": "Medical facility hours",
      "quantity_limit": "Patient meals",
      "id_required": true
    },
    "intake": {
      "phone": "313-576-1000",
      "hours": "Facility hours",
      "notes": "Nutrition services and meal programs for enrolled veterans"
    },
    "source_url": "https://www.va.gov/detroit-health-care/locations/john-d-dingell-department-of-veterans-affairs-medical-center/",
    "confidence": 0.89
  },
  {
    "name": "Vietnam Veterans of America Chapter 77 - Tonawanda Food Pantry",
    "organization": "Vietnam Veterans of America Chapter 77",
    "category": "food",
    "subcategory": "food-pantry",
    "description": "Food pantry dedicated to serving veterans in the Buffalo area operated by Vietnam Veterans of America",
    "phone": "716-695-0321",
    "website": "https://vva77.org/",
    "address": "47 Main Street",
    "city": "Tonawanda",
    "state": "NY",
    "zip": "14150",
    "eligibility": {
      "veteran_status_required": true,
      "docs_required": ["Proof of veteran status"]
    },
    "food_details": {
      "distribution_schedule": "Wednesday 9:00 AM - 1:00 PM, Saturday 9:00 AM - 1:00 PM",
      "quantity_limit": "Not specified",
      "id_required": true
    },
    "intake": {
      "phone": "716-695-0321",
      "hours": "Wednesday and Saturday 9:00 AM - 1:00 PM",
      "notes": "Food pantry located next door to main Chapter 77 location"
    },
    "source_url": "https://vva77.org/",
    "confidence": 0.88
  },
  {
    "name": "Resurrection Life Food Pantry - Cheektowaga",
    "organization": "Resurrection Life Fellowship",
    "category": "food",
    "subcategory": "food-pantry",
    "description": "Emergency food relief organization serving chronically homeless veterans through VA HUD-VASH program and general population with first-time emergency food assistance",
    "phone": "716-656-8995",
    "website": "https://res-life.com/MINISTRIES/food-pantry/",
    "address": "2145 Old Union Road",
    "city": "Cheektowaga",
    "state": "NY",
    "zip": "14227",
    "eligibility": {
      "veteran_status_required": false,
      "docs_required": ["Income verification for first-time users"]
    },
    "food_details": {
      "distribution_schedule": "Tuesday 10:00 AM - 12:00 PM, Thursday 10:00 AM - 12:45 PM, 1st & 3rd Thursday 6:00 PM - 7:00 PM",
      "quantity_limit": "Not specified",
      "id_required": false
    },
    "intake": {
      "phone": "716-656-8995 or 716-608-3400",
      "hours": "Tue 10 AM-12 PM, Thu 10 AM-12:45 PM, 1st & 3rd Thu 6-7 PM",
      "notes": "Partners with VA HUD-VASH program to serve 200+ chronically homeless veterans; emergency appointments available"
    },
    "source_url": "https://res-life.com/MINISTRIES/food-pantry/",
    "confidence": 0.90
  },
  {
    "name": "Vietnam Veterans of America Chapter 154 - Food Pantry",
    "organization": "Vietnam Veterans of America Chapter 154",
    "category": "food",
    "subcategory": "food-pantry",
    "description": "Food pantry operated by Vietnam Veterans of America providing assistance to veterans in Michigan area with limited lifetime use",
    "phone": "586-416-1945",
    "website": "https://vva154.com/food-pantry/",
    "address": "18025 E. 15 Mile Road",
    "city": "Clinton Township",
    "state": "MI",
    "zip": "48035",
    "eligibility": {
      "veteran_status_required": true,
      "docs_required": ["Proof of veteran status"]
    },
    "food_details": {
      "distribution_schedule": "Call for schedule",
      "quantity_limit": "8 times per lifetime",
      "id_required": true
    },
    "intake": {
      "phone": "586-416-1945",
      "hours": "Call for hours",
      "notes": "Veterans entitled to use food pantry 8 times in lifetime; located in Michigan area"
    },
    "source_url": "https://vva154.com/food-pantry/",
    "confidence": 0.84
  }
]
