[
  {
    "name": "Georgia Department of Veterans Service - Atlanta Field Service Office",
    "organization": "Georgia Department of Veterans Service",
    "category": "benefits",
    "subcategory": "vso-services",
    "description": "State-level veterans field service office providing benefits counseling, claims assistance, and guidance on veteran benefits and entitlements",
    "phone": "404-656-5940",
    "website": "https://veterans.georgia.gov/locations/atlanta",
    "address": "205 Jesse Hill Jr. Drive, Suite 460, Atlanta, GA 30334",
    "city": "Atlanta",
    "state": "GA",
    "eligibility": {
      "veteran_status_required": true,
      "family_eligible": true,
      "docs_required": ["DD-214", "Photo ID"]
    },
    "services": [
      "Benefits counseling",
      "Claims assistance",
      "Disability compensation guidance",
      "VA benefits navigation",
      "Veteran entitlements"
    ],
    "hours": "Monday-Friday 9:00 am - 4:30 pm",
    "appointment_required": false,
    "cost": "Free",
    "coverage_area": "Fulton County",
    "source_url": "https://veterans.georgia.gov/locations/atlanta",
    "confidence": 0.95,
    "notes": "Located in Floyd Veterans Memorial Towers, East Tower Balcony level. Walk-ins accepted as time permits."
  },
  {
    "name": "Senator Johnny Isakson VA Atlanta Regional Office",
    "organization": "U.S. Department of Veterans Affairs",
    "category": "benefits",
    "subcategory": "vso-services",
    "description": "Federal VA regional office providing compensation for service-related disabilities, veterans employment assistance, counseling, and VA benefits information",
    "phone": "404-929-6059",
    "website": "https://www.benefits.va.gov/Atlanta/",
    "address": "1700 Clairmont Road, Decatur, GA 30033",
    "city": "Decatur",
    "state": "GA",
    "eligibility": {
      "veteran_status_required": true,
      "family_eligible": true,
      "docs_required": ["DD-214", "Photo ID"]
    },
    "services": [
      "Disability compensation",
      "Veteran readiness and employment",
      "Benefits counseling",
      "VA health care information",
      "Memorial benefits",
      "Home loan guaranty"
    ],
    "hours": "Monday-Friday 8:00 am - 4:00 pm",
    "appointment_required": false,
    "cost": "Free",
    "coverage_area": "Atlanta Metro Area",
    "source_url": "https://www.benefits.va.gov/Atlanta/",
    "confidence": 0.98,
    "notes": "Free parking available. Some services available walk-in; appointments can be scheduled through VERA."
  },
  {
    "name": "DAV Chapter 1 GA (Disabled American Veterans)",
    "organization": "Disabled American Veterans",
    "category": "benefits",
    "subcategory": "vso-services",
    "description": "VSO providing free VA claims assistance, advocacy, and support services for disabled veterans through accredited service officers",
    "phone": "404-929-5345",
    "website": "https://davchapter1ga.org/",
    "address": "Atlanta, GA",
    "city": "Atlanta",
    "state": "GA",
    "eligibility": {
      "veteran_status_required": true,
      "family_eligible": true,
      "docs_required": ["DD-214"]
    },
    "services": [
      "VA claims assistance",
      "Disability compensation",
      "Veterans advocacy",
      "Member support services"
    ],
    "hours": "Call for hours",
    "appointment_required": false,
    "cost": "Free",
    "coverage_area": "Atlanta Area",
    "source_url": "https://davchapter1ga.org/",
    "confidence": 0.85,
    "notes": "Contact through national DAV locator at dav.org for local services."
  },
  {
    "name": "VFW Post 12164 (Atlanta-Buckhead)",
    "organization": "Veterans of Foreign Wars",
    "category": "benefits",
    "subcategory": "vso-services",
    "description": "VFW post with accredited service officers providing free VA claims and benefits assistance to all veterans regardless of membership",
    "phone": "404-754-9524",
    "website": "https://www.vfw12164.org/",
    "address": "1075 Peachtree Street NE, Suite 6, Atlanta, GA 30309",
    "city": "Atlanta",
    "state": "GA",
    "eligibility": {
      "veteran_status_required": true,
      "family_eligible": false,
      "docs_required": ["DD-214", "Photo ID"]
    },
    "services": [
      "VA claims assistance",
      "Disability compensation",
      "Benefits navigation",
      "Service officer consultation"
    ],
    "hours": "Meetings 4th Saturday of month 10:00 am - 11:00 am",
    "appointment_required": false,
    "cost": "Free",
    "coverage_area": "Atlanta-Buckhead Area",
    "source_url": "https://www.vfw12164.org/",
    "confidence": 0.90,
    "notes": "Located at 979 Crescent Ave NE for monthly meetings. Contact for claims assistance hours."
  },
  {
    "name": "American Legion Post 233",
    "organization": "American Legion",
    "category": "benefits",
    "subcategory": "vso-services",
    "description": "American Legion post with service officer providing VA benefits guidance, disability claims assistance, and veteran resources information",
    "phone": "770-466-4728",
    "website": "https://www.gapost233.com/",
    "address": "4635 Highway 78, Loganville, GA 30052",
    "city": "Loganville",
    "state": "GA",
    "eligibility": {
      "veteran_status_required": true,
      "family_eligible": true,
      "docs_required": ["DD-214", "Photo ID"]
    },
    "services": [
      "Disability compensation claims",
      "VA benefits assistance",
      "Education benefits (GI Bill)",
      "Home loan guaranty",
      "Cemetery and burial benefits"
    ],
    "hours": "Monday-Friday 5:00 pm - 10:00 pm; Saturday 12:00 pm - 10:00 pm; Sunday 12:00 pm - 4:00 pm",
    "appointment_required": false,
    "cost": "Free",
    "coverage_area": "Greater Atlanta Metro / Walton County",
    "source_url": "https://www.gapost233.com/",
    "confidence": 0.88,
    "notes": "Also known as Barrett-Davis Watson Post 233. Located in Loganville, north of Atlanta."
  },
  {
    "name": "Mecklenburg County Veterans Services Division",
    "organization": "Mecklenburg County Department of Community Support Services",
    "category": "benefits",
    "subcategory": "vso-services",
    "description": "County-based VSO office providing benefits counseling, claims development, and case coordination for veterans and their families. Accredited through NACVSO and DMVA.",
    "phone": "704-336-2102",
    "website": "https://css.mecknc.gov/veterans-services",
    "address": "3205 Freedom Drive, Suite 2000, Charlotte, NC 28208",
    "city": "Charlotte",
    "state": "NC",
    "eligibility": {
      "veteran_status_required": true,
      "family_eligible": true,
      "docs_required": ["DD-214", "Photo ID"]
    },
    "services": [
      "Benefits claims development",
      "VA disability compensation claims",
      "Pension benefits assistance",
      "VA healthcare navigation",
      "Housing assistance",
      "Employment and education referrals",
      "Surviving spouse and dependent benefits"
    ],
    "hours": "Mon-Fri 8am-5pm",
    "appointment_required": false,
    "cost": "Free",
    "coverage_area": "Mecklenburg County",
    "source_url": "https://css.mecknc.gov/veterans-services",
    "confidence": 0.95,
    "notes": "Walk-in hours available. Accredited by National Association of County Veterans Service Officers."
  },
  {
    "name": "Charlotte Veterans Service Center (State VSO)",
    "organization": "North Carolina Department of Military & Veterans Affairs",
    "category": "benefits",
    "subcategory": "vso-services",
    "description": "State-operated veteran service center providing access to federal, state, and local veteran benefits and programs. Benefits specialists assist with applications and claims.",
    "phone": "919-664-1080",
    "website": "https://www.milvets.nc.gov/benefits-services/benefits-claims",
    "address": "7508 East Independence Boulevard, Suite 119, Charlotte, NC 28227",
    "city": "Charlotte",
    "state": "NC",
    "eligibility": {
      "veteran_status_required": true,
      "family_eligible": true,
      "docs_required": ["DD-214", "Photo ID"]
    },
    "services": [
      "VA benefits claims assistance",
      "Access to federal veteran programs",
      "Access to state veteran programs",
      "Access to local veteran programs",
      "Personalized benefits consultation"
    ],
    "hours": "Business hours (call for details)",
    "appointment_required": false,
    "cost": "Free",
    "coverage_area": "Charlotte/Piedmont Region",
    "source_url": "https://www.milvets.nc.gov/benefits-services/benefits-claims",
    "confidence": 0.90,
    "notes": "Part of NC Department of Military & Veterans Affairs network."
  },
  {
    "name": "Disabled American Veterans (DAV) - North Carolina",
    "organization": "Disabled American Veterans",
    "category": "benefits",
    "subcategory": "vso-services",
    "description": "National VSO organization providing free VA claims assistance and appeals support. DAV representatives help veterans navigate VA benefits system.",
    "phone": "877-426-2838",
    "website": "https://www.dav.org/contact-us/",
    "address": "Multiple locations throughout North Carolina",
    "city": "Charlotte",
    "state": "NC",
    "eligibility": {
      "veteran_status_required": true,
      "family_eligible": true,
      "docs_required": ["DD-214"]
    },
    "services": [
      "VA disability claims assistance",
      "Compensation and pension claims help",
      "Appeals assistance",
      "Healthcare benefits navigation",
      "Claims counseling"
    ],
    "hours": "Call for hours",
    "appointment_required": false,
    "cost": "Free",
    "coverage_area": "North Carolina (nationwide organization)",
    "source_url": "https://www.dav.org/contact-us/",
    "confidence": 0.85,
    "notes": "1-877-I-AM-A-VET (877-426-2838) toll-free number."
  },
  {
    "name": "Charlotte Center for Legal Advocacy - Veterans Program",
    "organization": "Charlotte Center for Legal Advocacy",
    "category": "legal",
    "subcategory": "appeals",
    "description": "Non-profit legal aid providing free/low-cost legal assistance to low-income veterans with disability claims, discharge upgrades, and housing-related civil legal matters.",
    "phone": "704-376-1600",
    "website": "https://charlottelegaladvocacy.org/veterans/",
    "address": "5535 Albemarle Road, Charlotte, NC 28212",
    "city": "Charlotte",
    "state": "NC",
    "eligibility": {
      "veteran_status_required": true,
      "family_eligible": false,
      "docs_required": ["DD-214", "Income verification"]
    },
    "services": [
      "VA disability claims assistance",
      "Military discharge upgrade appeals",
      "Civil legal assistance",
      "Housing stability legal help",
      "Criminal record expunctions"
    ],
    "hours": "Business hours (call for details)",
    "appointment_required": true,
    "cost": "Free to low-income eligible veterans",
    "coverage_area": "Mecklenburg, Cabarrus, Rowan, Union Counties",
    "source_url": "https://charlottelegaladvocacy.org/veterans/",
    "confidence": 0.90,
    "notes": "Served 131 veterans with direct legal services in 2024."
  },
  {
    "name": "Charlotte Vet Center",
    "organization": "Department of Veterans Affairs",
    "category": "benefits",
    "subcategory": "appeals",
    "description": "VA facility providing confidential non-medical counseling and mental health support to veterans, service members, and families at no cost. Offers transition assistance and VA benefits connections.",
    "phone": "704-423-4800",
    "website": "https://www.va.gov/charlotte-vet-center/",
    "address": "2114 Ben Craig Drive, Suite 300, Charlotte, NC 28262",
    "city": "Charlotte",
    "state": "NC",
    "eligibility": {
      "veteran_status_required": true,
      "family_eligible": true,
      "docs_required": ["DD-214"]
    },
    "services": [
      "Individual and group counseling",
      "PTSD treatment",
      "Depression and anxiety support",
      "Military sexual trauma counseling",
      "Couples and family counseling",
      "Transition assistance"
    ],
    "hours": "Mon-Fri 8am-4:30pm",
    "appointment_required": true,
    "cost": "Free",
    "coverage_area": "Charlotte area",
    "source_url": "https://www.va.gov/charlotte-vet-center/",
    "confidence": 0.92,
    "notes": "24/7 Crisis line: 877-927-8387. No VA enrollment required for services."
  },
  {
    "name": "Davidson County Office of Veterans Services",
    "organization": "Davidson County Government",
    "category": "benefits",
    "subcategory": "vso-services",
    "description": "County office providing VA disability claims, federal/state benefits applications, and community resource connections. Located inside Operation Stand Down TN.",
    "phone": "615-248-1981",
    "website": "https://www.nashville.gov/departments/human-resources/veterans-services",
    "address": "1125 12th Avenue South, Nashville, TN 37203",
    "city": "Nashville",
    "state": "TN",
    "eligibility": {
      "veteran_status_required": true,
      "family_eligible": true,
      "docs_required": ["DD-214", "Photo ID"]
    },
    "services": [
      "VA disability claims",
      "Federal/state benefits applications",
      "Community resource connections",
      "Benefits counseling"
    ],
    "hours": "Mon-Thu 8am-4:30pm, Fri 10am-4:30pm",
    "appointment_required": false,
    "cost": "Free",
    "coverage_area": "Davidson County",
    "source_url": "https://www.nashville.gov/departments/human-resources/veterans-services",
    "confidence": 0.95,
    "notes": "Certified VSOs on-site. Walk-ins welcome."
  },
  {
    "name": "Nashville VA Regional Office - Benefits Counseling",
    "organization": "U.S. Department of Veterans Affairs",
    "category": "benefits",
    "subcategory": "vso-services",
    "description": "Federal VA regional office providing compensation, pension, loan guaranty, vocational rehabilitation, education, and insurance benefits counseling.",
    "phone": "800-827-1000",
    "website": "https://www.benefits.va.gov/nashville/",
    "address": "110 9th Avenue South, Nashville, TN 37203",
    "city": "Nashville",
    "state": "TN",
    "eligibility": {
      "veteran_status_required": true,
      "family_eligible": true,
      "docs_required": ["DD-214", "Photo ID"]
    },
    "services": [
      "Disability compensation",
      "Pension",
      "Loan guaranty",
      "Vocational rehabilitation",
      "Education benefits",
      "Insurance benefits"
    ],
    "hours": "Mon-Fri 8:30am-4pm CST",
    "appointment_required": false,
    "cost": "Free",
    "coverage_area": "Nashville Metro Area",
    "source_url": "https://www.benefits.va.gov/nashville/",
    "confidence": 1.0,
    "notes": "VERA online scheduling available."
  },
  {
    "name": "Tennessee Department of Veterans Services - Nashville Office",
    "organization": "Tennessee Department of Veterans Services",
    "category": "benefits",
    "subcategory": "vso-services",
    "description": "State-level office providing federal benefits claims, state veteran benefits, and resource coordination for all Tennessee veterans.",
    "phone": "615-741-2345",
    "website": "https://www.tn.gov/veteran.html",
    "address": "312 Rosa L. Parks Avenue, 13th Floor, Nashville, TN 37243",
    "city": "Nashville",
    "state": "TN",
    "eligibility": {
      "veteran_status_required": true,
      "family_eligible": true,
      "docs_required": ["DD-214", "Photo ID"]
    },
    "services": [
      "Federal benefits claims",
      "State veteran benefits",
      "Resource coordination",
      "Benefits counseling"
    ],
    "hours": "Mon-Fri 8am-4:30pm",
    "appointment_required": false,
    "cost": "Free",
    "coverage_area": "Tennessee statewide",
    "source_url": "https://www.tn.gov/veteran.html",
    "confidence": 0.90,
    "notes": "Statewide service with 14 field offices."
  },
  {
    "name": "Operation Stand Down Tennessee",
    "organization": "Operation Stand Down Tennessee",
    "category": "benefits",
    "subcategory": "vso-services",
    "description": "Comprehensive veteran services including VA benefits assistance, crisis support, career services, and housing assistance.",
    "phone": "615-248-1981",
    "website": "https://www.osdtn.org/",
    "address": "1125 12th Avenue South, Nashville, TN 37203",
    "city": "Nashville",
    "state": "TN",
    "eligibility": {
      "veteran_status_required": true,
      "family_eligible": true,
      "docs_required": ["DD-214"]
    },
    "services": [
      "VA benefits assistance",
      "Crisis support",
      "Career services",
      "Housing assistance",
      "Community resources"
    ],
    "hours": "Mon-Thu 8am-4:30pm, Fri 10am-4:30pm",
    "appointment_required": false,
    "cost": "Free",
    "coverage_area": "Nashville/Davidson County",
    "source_url": "https://www.osdtn.org/",
    "confidence": 0.90,
    "notes": "Major VSO with comprehensive services co-located with county VSO office."
  },
  {
    "name": "DAV Service Officer - Nashville VA Medical Center",
    "organization": "Disabled American Veterans (DAV)",
    "category": "benefits",
    "subcategory": "vso-services",
    "description": "Accredited DAV service officer providing free VA disability claims, appeals, and benefits applications. No membership required.",
    "phone": "615-873-7090",
    "website": "https://www.davtn.org/",
    "address": "1310 24th Avenue South, Room G114, Nashville, TN 37212",
    "city": "Nashville",
    "state": "TN",
    "eligibility": {
      "veteran_status_required": true,
      "family_eligible": true,
      "docs_required": ["DD-214", "Photo ID"]
    },
    "services": [
      "VA disability claims",
      "Appeals assistance",
      "Benefits applications",
      "Claims counseling"
    ],
    "hours": "Call for hours",
    "appointment_required": false,
    "cost": "Free",
    "coverage_area": "Nashville/Middle Tennessee",
    "source_url": "https://www.davtn.org/",
    "confidence": 0.85,
    "notes": "Service Officer: Monica D. Davison. Located at VA Medical Center."
  },
  {
    "name": "American Legion Department of Tennessee",
    "organization": "The American Legion",
    "category": "benefits",
    "subcategory": "vso-services",
    "description": "Accredited service officers providing free VA disability benefits applications, appeals, and claims assistance. Membership not required.",
    "phone": "615-391-5088",
    "website": "https://tennesseelegion.org/",
    "address": "318 Donelson Pike, Nashville, TN 37214",
    "city": "Nashville",
    "state": "TN",
    "eligibility": {
      "veteran_status_required": true,
      "family_eligible": true,
      "docs_required": ["DD-214"]
    },
    "services": [
      "VA disability benefits applications",
      "Appeals assistance",
      "Claims assistance",
      "Veterans advocacy"
    ],
    "hours": "Call for hours",
    "appointment_required": false,
    "cost": "Free",
    "coverage_area": "Tennessee statewide",
    "source_url": "https://tennesseelegion.org/",
    "confidence": 0.80,
    "notes": "Multiple local posts throughout Nashville. Service officers at Posts 82 and 88."
  },
  {
    "name": "City of Jacksonville Veterans Services",
    "organization": "City of Jacksonville",
    "category": "benefits",
    "subcategory": "vso-services",
    "description": "Primary county VSO office providing comprehensive benefits assistance at Jacksonville City Hall. Walk-ins welcome.",
    "phone": "904-255-5550",
    "website": "https://www.jacksonville.gov/departments/military-and-veterans-affairs/veterans-services",
    "address": "Jacksonville City Hall, Jacksonville, FL",
    "city": "Jacksonville",
    "state": "FL",
    "eligibility": {
      "veteran_status_required": true,
      "family_eligible": true,
      "docs_required": ["DD-214", "Photo ID"]
    },
    "services": [
      "Benefits assistance",
      "Claims counseling",
      "Benefits guidance",
      "Resource referrals"
    ],
    "hours": "Mon-Fri 7 AM - 3 PM",
    "appointment_required": false,
    "cost": "Free",
    "coverage_area": "Duval County",
    "source_url": "https://www.jacksonville.gov/departments/military-and-veterans-affairs/veterans-services",
    "confidence": 0.95,
    "notes": "Walk-ins welcome during business hours."
  },
  {
    "name": "FDVA Jacksonville Downtown - Florida Department of Veterans' Affairs",
    "organization": "Florida Department of Veterans' Affairs",
    "category": "benefits",
    "subcategory": "vso-services",
    "description": "State VSO office providing veteran benefits services and claims assistance.",
    "phone": "904-255-5550",
    "website": "https://floridavets.org/locations/state-veterans-service-officer-sites/",
    "address": "1536 N. Jefferson Street, Jacksonville, FL",
    "city": "Jacksonville",
    "state": "FL",
    "eligibility": {
      "veteran_status_required": true,
      "family_eligible": true,
      "docs_required": ["DD-214", "Photo ID"]
    },
    "services": [
      "Veteran benefits services",
      "Claims assistance",
      "Benefits counseling"
    ],
    "hours": "Business hours (call for details)",
    "appointment_required": false,
    "cost": "Free",
    "coverage_area": "Jacksonville/Duval County",
    "source_url": "https://floridavets.org/locations/state-veterans-service-officer-sites/",
    "confidence": 0.90,
    "notes": "State VSO office."
  },
  {
    "name": "Jacksonville Vet Center",
    "organization": "U.S. Department of Veterans Affairs",
    "category": "benefits",
    "subcategory": "vso-services",
    "description": "VA Vet Center providing free counseling, mental health support, and benefits information. Walk-ins welcome with same-day services available.",
    "phone": "904-399-8351",
    "website": "https://www.va.gov/jacksonville-fl-vet-center/",
    "address": "3728 Phillips Highway, Jacksonville, FL",
    "city": "Jacksonville",
    "state": "FL",
    "eligibility": {
      "veteran_status_required": true,
      "family_eligible": true,
      "docs_required": ["DD-214"]
    },
    "services": [
      "Individual counseling",
      "Group counseling",
      "Mental health support",
      "Benefits information",
      "Crisis support",
      "Resource referrals"
    ],
    "hours": "Business hours (call for details)",
    "appointment_required": false,
    "cost": "Free",
    "coverage_area": "Jacksonville area",
    "source_url": "https://www.va.gov/jacksonville-fl-vet-center/",
    "confidence": 0.95,
    "notes": "24/7 crisis line: 877-927-8387. Walk-ins welcome with same-day services."
  },
  {
    "name": "VA Community Resource & Referral Center",
    "organization": "U.S. Department of Veterans Affairs",
    "category": "benefits",
    "subcategory": "vso-services",
    "description": "Focus on homeless and at-risk veterans. Provides community resources, referrals, and benefits assistance.",
    "phone": "904-255-5550",
    "website": "https://www.va.gov/homeless/crrc.asp",
    "address": "605 West Beaver Street, Jacksonville, FL",
    "city": "Jacksonville",
    "state": "FL",
    "eligibility": {
      "veteran_status_required": true,
      "family_eligible": false,
      "docs_required": ["DD-214"]
    },
    "services": [
      "Housing resources",
      "Community referrals",
      "Benefits assistance",
      "Homeless support"
    ],
    "hours": "Mon-Fri 8 AM - 5 PM",
    "appointment_required": false,
    "cost": "Free",
    "coverage_area": "Jacksonville/Northeast Florida",
    "source_url": "https://www.va.gov/homeless/crrc.asp",
    "confidence": 0.90,
    "notes": "Specializes in homeless/at-risk veteran services."
  },
  {
    "name": "DAV Chapter 1 Jacksonville",
    "organization": "Disabled American Veterans",
    "category": "benefits",
    "subcategory": "vso-services",
    "description": "DAV chapter providing free VA claims assistance through accredited service officers. Membership not required.",
    "phone": "904-255-5550",
    "website": "https://davwebsites.dav.org/fl/01/",
    "address": "1439 Parental Home Road, Jacksonville, FL",
    "city": "Jacksonville",
    "state": "FL",
    "eligibility": {
      "veteran_status_required": true,
      "family_eligible": true,
      "docs_required": ["DD-214"]
    },
    "services": [
      "VA claims assistance",
      "Disability compensation",
      "Benefits counseling",
      "Appeals assistance"
    ],
    "hours": "Call for hours",
    "appointment_required": false,
    "cost": "Free",
    "coverage_area": "Jacksonville/Northeast Florida",
    "source_url": "https://davwebsites.dav.org/fl/01/SystemPages/Home.aspx",
    "confidence": 0.85,
    "notes": "Accredited service officers on staff."
  },
  {
    "name": "VFW Post 3270",
    "organization": "Veterans of Foreign Wars",
    "category": "benefits",
    "subcategory": "vso-services",
    "description": "VFW post providing VA benefits assistance and claims support through accredited service officers.",
    "phone": "904-255-5550",
    "website": "https://vfw3270.org/",
    "address": "915 8th Ave S, Jacksonville Beach, FL",
    "city": "Jacksonville Beach",
    "state": "FL",
    "eligibility": {
      "veteran_status_required": true,
      "family_eligible": true,
      "docs_required": ["DD-214"]
    },
    "services": [
      "VA claims assistance",
      "Benefits support",
      "Service officer consultation",
      "Community programs"
    ],
    "hours": "Call for hours",
    "appointment_required": false,
    "cost": "Free",
    "coverage_area": "Jacksonville/Jacksonville Beach",
    "source_url": "https://vfw3270.org/",
    "confidence": 0.85,
    "notes": "Located in Jacksonville Beach area."
  },
  {
    "name": "American Legion Post 283",
    "organization": "American Legion",
    "category": "benefits",
    "subcategory": "vso-services",
    "description": "American Legion post providing VA benefits and claims assistance through accredited service officers.",
    "phone": "904-255-5550",
    "website": "https://www.floridalegion.org/",
    "address": "9459 Fort Caroline Road, Jacksonville, FL",
    "city": "Jacksonville",
    "state": "FL",
    "eligibility": {
      "veteran_status_required": true,
      "family_eligible": true,
      "docs_required": ["DD-214"]
    },
    "services": [
      "VA claims assistance",
      "Disability benefits",
      "Benefits counseling",
      "Veterans advocacy"
    ],
    "hours": "Daily 6 AM - 11 PM",
    "appointment_required": false,
    "cost": "Free",
    "coverage_area": "Jacksonville area",
    "source_url": "https://www.floridalegion.org/findpost/northern-area/district-5/post283/",
    "confidence": 0.85,
    "notes": "Extended daily hours."
  },
  {
    "name": "Virginia Department of Veterans Services - Richmond Headquarters",
    "organization": "Virginia Department of Veterans Services",
    "category": "benefits",
    "subcategory": "vso-services",
    "description": "State veterans service officers providing free assistance with VA claims, disability compensation, pension, education, and employment services",
    "phone": "804-786-0286",
    "website": "https://www.dvs.virginia.gov",
    "address": "101 North 14th Street, 17th Floor, Richmond, VA 23219",
    "city": "Richmond",
    "state": "VA",
    "eligibility": {
      "veteran_status_required": true,
      "family_eligible": true,
      "docs_required": ["DD-214", "Photo ID"]
    },
    "services": [
      "Disability compensation claims",
      "Pension assistance",
      "Education benefits",
      "Employment services",
      "Benefits consultation"
    ],
    "hours": "Monday-Friday 8:00am-4:30pm",
    "appointment_required": false,
    "cost": "Free",
    "coverage_area": "Richmond and statewide Virginia",
    "source_url": "https://www.dvs.virginia.gov",
    "confidence": 0.95,
    "notes": "Main state office. Multiple locations throughout Virginia."
  },
  {
    "name": "Virginia Department of Veterans Services - Henrico County Office",
    "organization": "Virginia Department of Veterans Services",
    "category": "benefits",
    "subcategory": "vso-services",
    "description": "County veterans service office providing benefits assistance, disability compensation, education, employment, and health benefits consultation",
    "phone": "804-593-2782",
    "website": "https://www.dvs.virginia.gov",
    "address": "121 Cedar Fork Road, Room 412, Henrico, VA 23223",
    "city": "Henrico",
    "state": "VA",
    "eligibility": {
      "veteran_status_required": true,
      "family_eligible": true,
      "docs_required": ["DD-214", "Photo ID"]
    },
    "services": [
      "Disability compensation",
      "Benefits consultation",
      "Education and employment services",
      "Health benefits information"
    ],
    "hours": "Monday-Friday 8:00am-4:30pm (Appointment only)",
    "appointment_required": true,
    "cost": "Free",
    "coverage_area": "Henrico County",
    "source_url": "https://search.211virginia.org/search/2b46f965-8cde-5751-b48b-94277b6552e7",
    "confidence": 0.95,
    "notes": "Appointments Mon-Thu 8:30am-3pm, Fri 8:30am-1pm."
  },
  {
    "name": "American Legion - Richmond Department",
    "organization": "American Legion Department of Virginia",
    "category": "benefits",
    "subcategory": "vso-services",
    "description": "American Legion Service Officers provide accredited, free assistance with VA disability benefits, appeals, education, and employment resources",
    "phone": "804-353-6606",
    "website": "https://valegion.org",
    "address": "1708 Commonwealth Avenue, Richmond, VA 23230",
    "city": "Richmond",
    "state": "VA",
    "eligibility": {
      "veteran_status_required": true,
      "family_eligible": true,
      "docs_required": ["DD-214"]
    },
    "services": [
      "VA disability benefits claims",
      "Appeals assistance",
      "Employment resources",
      "Financial assistance",
      "Education support"
    ],
    "hours": "Monday-Friday 8:00am-4:00pm",
    "appointment_required": false,
    "cost": "Free",
    "coverage_area": "Richmond and statewide Virginia",
    "source_url": "https://valegion.org/about/contact-us/",
    "confidence": 0.90,
    "notes": "One of the largest VSO organizations. Accredited service officers."
  },
  {
    "name": "Disabled American Veterans (DAV) Chapter 50",
    "organization": "Disabled American Veterans - Chapter 50",
    "category": "benefits",
    "subcategory": "vso-services",
    "description": "DAV accredited service officers providing free assistance with disability compensation claims, appeals, and benefits consultation",
    "phone": "804-745-3453",
    "website": "https://www.dav50va.org",
    "address": "6221 Newbys Bridge Road, Richmond, VA 23219",
    "city": "Richmond",
    "state": "VA",
    "eligibility": {
      "veteran_status_required": true,
      "family_eligible": true,
      "docs_required": ["DD-214"]
    },
    "services": [
      "Disability compensation claims",
      "Appeals assistance",
      "Benefits consultation",
      "Hospital transportation services"
    ],
    "hours": "Contact office for hours",
    "appointment_required": false,
    "cost": "Free",
    "coverage_area": "Richmond area",
    "source_url": "https://www.yelp.com/biz/disabled-american-veterans-chapter-50-richmond",
    "confidence": 0.85,
    "notes": "Specializing in disability claims assistance."
  },
  {
    "name": "VFW Post 6364",
    "organization": "Veterans of Foreign Wars - Post 6364",
    "category": "benefits",
    "subcategory": "vso-services",
    "description": "VFW post offering community support, services information, and connection to accredited service officers for benefits assistance",
    "phone": "804-288-9597",
    "website": "https://vfw6364.com",
    "address": "6502 Dickens Place, Richmond, VA 23230",
    "city": "Richmond",
    "state": "VA",
    "eligibility": {
      "veteran_status_required": true,
      "family_eligible": true,
      "docs_required": ["DD-214"]
    },
    "services": [
      "Veteran community support",
      "Benefits information",
      "Accredited service officer referrals",
      "Military partnerships"
    ],
    "hours": "Mon-Thu 10:00am-9:00pm, Fri 10:00am-11:00pm, Sat 10:00am-10:00pm, Sun 8:00am-9:00pm",
    "appointment_required": false,
    "cost": "Free",
    "coverage_area": "Richmond area",
    "source_url": "https://vfw6364.com/",
    "confidence": 0.85,
    "notes": "Email: veterans@vfw6364.net"
  },
  {
    "name": "Richmond Vet Center",
    "organization": "U.S. Department of Veterans Affairs",
    "category": "benefits",
    "subcategory": "vso-services",
    "description": "VA Vet Center providing free counseling, benefits information, and referrals for PTSD, mental health, and suicide prevention services",
    "phone": "804-353-8958",
    "website": "https://www.va.gov/richmond-vet-center/",
    "address": "4902 Fitzhugh Avenue, Richmond, VA 23230",
    "city": "Richmond",
    "state": "VA",
    "eligibility": {
      "veteran_status_required": true,
      "family_eligible": true,
      "docs_required": ["DD-214"]
    },
    "services": [
      "Mental health counseling",
      "PTSD treatment",
      "Military sexual trauma counseling",
      "Substance abuse assessment",
      "Suicide prevention referrals",
      "Benefits information"
    ],
    "hours": "Mon-Wed & Fri 8:00am-4:30pm, Thu 8:00am-9:00pm",
    "appointment_required": false,
    "cost": "Free",
    "coverage_area": "Richmond area",
    "source_url": "https://www.va.gov/richmond-vet-center/",
    "confidence": 0.95,
    "notes": "24/7 crisis line: 877-927-8387. Free parking available."
  },
  {
    "name": "Central Virginia Legal Aid Society",
    "organization": "Central Virginia Legal Aid Society (CVLAS)",
    "category": "legal",
    "subcategory": "appeals",
    "description": "Free legal aid organization providing civil legal services and representation, including veterans appeals and benefit disputes",
    "phone": "1-866-534-5243",
    "website": "https://cvlas.org",
    "address": "Richmond, VA (multiple locations)",
    "city": "Richmond",
    "state": "VA",
    "eligibility": {
      "veteran_status_required": true,
      "family_eligible": false,
      "docs_required": ["DD-214", "Income verification"]
    },
    "services": [
      "Free legal advice",
      "Legal representation",
      "Appeals assistance",
      "Veterans legal services",
      "Estate planning"
    ],
    "hours": "Contact office for hours",
    "appointment_required": true,
    "cost": "Free",
    "coverage_area": "Central Virginia (Richmond, Petersburg, Charlottesville)",
    "source_url": "https://cvlas.org/",
    "confidence": 0.85,
    "notes": "Low-income eligibility required. Never charges fees."
  },
  {
    "name": "Wake County Veterans Services Office - Main",
    "organization": "Wake County Government",
    "category": "benefits",
    "subcategory": "vso-services",
    "description": "County Veterans Service Office providing VA claims assistance, disability compensation, pensions, healthcare enrollment, education benefits, survivor assistance, and connections to housing, employment, and mental health services. Nationally and state-accredited VSOs.",
    "phone": "919-212-8387",
    "website": "https://www.wake.gov/departments-government/veterans-services",
    "address": "4401 Bland Road, Raleigh, NC 27609",
    "city": "Raleigh",
    "state": "NC",
    "eligibility": {
      "veteran_status_required": true,
      "family_eligible": true,
      "docs_required": ["DD-214", "Photo ID"]
    },
    "services": [
      "Disability compensation claims",
      "Pension benefits",
      "VA healthcare enrollment",
      "Education benefits",
      "Survivor assistance",
      "Housing support connections",
      "Employment resources",
      "Mental health care referrals"
    ],
    "hours": "Mon-Fri 8:30am-5:15pm (office), 9am-4pm (walk-in services)",
    "appointment_required": true,
    "cost": "Free",
    "coverage_area": "Wake County",
    "source_url": "https://www.wake.gov/departments-government/veterans-services",
    "confidence": 0.95,
    "notes": "Appointments required for claims services. Virtual and phone appointments available. Satellite offices in Wake Forest and Zebulon."
  },
  {
    "name": "Raleigh Vet Center",
    "organization": "U.S. Department of Veterans Affairs",
    "category": "benefits",
    "subcategory": "vso-services",
    "description": "VA Vet Center providing confidential counseling and mental health services for veterans, service members, and their families at no cost in a non-medical setting. Specializes in PTSD, depression, trauma, and transition assistance.",
    "phone": "919-361-6419",
    "website": "https://www.va.gov/raleigh-vet-center/",
    "address": "8851 Ellstree Lane, Suite 122, Raleigh, NC 27617",
    "city": "Raleigh",
    "state": "NC",
    "eligibility": {
      "veteran_status_required": true,
      "family_eligible": true,
      "docs_required": ["DD-214"]
    },
    "services": [
      "Individual counseling",
      "Group counseling",
      "PTSD treatment",
      "Depression counseling",
      "Military sexual trauma counseling",
      "Couples and family therapy",
      "Grief and bereavement support",
      "Transition assistance"
    ],
    "hours": "Mon-Fri 8:00am-4:30pm",
    "appointment_required": false,
    "cost": "Free",
    "coverage_area": "Central North Carolina",
    "source_url": "https://www.va.gov/raleigh-vet-center/",
    "confidence": 0.95,
    "notes": "24/7 Call Center: 877-927-8387. Non-medical facility."
  },
  {
    "name": "Disabled American Veterans (DAV) - Department of North Carolina",
    "organization": "Disabled American Veterans (DAV)",
    "category": "benefits",
    "subcategory": "vso-services",
    "description": "DAV Department office providing VA claims and benefits assistance. Accredited representatives help veterans file disability compensation claims and navigate VA benefits.",
    "phone": "910-733-2299",
    "website": "https://davwebsites.dav.org/nc/",
    "address": "Suite 121, 5623 Duraleigh Road, Raleigh, NC 27612-2700",
    "city": "Raleigh",
    "state": "NC",
    "eligibility": {
      "veteran_status_required": true,
      "family_eligible": true,
      "docs_required": ["DD-214"]
    },
    "services": [
      "VA claims preparation and filing",
      "Disability compensation assistance",
      "Benefits counseling",
      "DAV Van service to VA medical appointments"
    ],
    "hours": "Tue & Thu 10:30am-3:30pm",
    "appointment_required": true,
    "cost": "Free",
    "coverage_area": "Wake County and North Carolina",
    "source_url": "https://davwebsites.dav.org/nc/SystemPages/Home.aspx",
    "confidence": 0.85,
    "notes": "Primary DAV state headquarters. Accredited VSO organization."
  },
  {
    "name": "DAV Wake County Chapter #1",
    "organization": "Disabled American Veterans (DAV) Wake County Chapter",
    "category": "benefits",
    "subcategory": "vso-services",
    "description": "Local DAV chapter serving Wake County veterans and their families. Provides peer support, advocacy, and connections to veteran benefits and services.",
    "phone": "919-217-8710",
    "website": "https://www.ncdav1.org/",
    "address": "Knightdale, NC",
    "city": "Knightdale",
    "state": "NC",
    "eligibility": {
      "veteran_status_required": true,
      "family_eligible": true,
      "docs_required": ["DD-214"]
    },
    "services": [
      "Peer support",
      "Benefits referrals",
      "Veteran advocacy",
      "Community connections"
    ],
    "hours": "Call for hours",
    "appointment_required": false,
    "cost": "Free",
    "coverage_area": "Wake County",
    "source_url": "https://www.ncdav1.org/",
    "confidence": 0.80,
    "notes": "Local DAV chapter in Wake County area."
  },
  {
    "name": "Cary VFW Post 7383",
    "organization": "Veterans of Foreign Wars (VFW)",
    "category": "benefits",
    "subcategory": "vso-services",
    "description": "VFW post providing VA benefits assistance, claims support, and veteran community services. Features a Post Benefits Advisor to help with VA benefits and eligibility.",
    "phone": "919-000-0000",
    "website": "https://caryvfw7383.org/",
    "address": "522 Reedy Creek Road, Cary, NC 27513",
    "city": "Cary",
    "state": "NC",
    "eligibility": {
      "veteran_status_required": true,
      "family_eligible": true,
      "docs_required": ["DD-214"]
    },
    "services": [
      "VA claims assistance",
      "Benefits eligibility information",
      "Community service",
      "Youth scholarships",
      "Emergency financial assistance for veterans"
    ],
    "hours": "Call for hours",
    "appointment_required": false,
    "cost": "Free",
    "coverage_area": "Wake County/Cary area",
    "source_url": "https://caryvfw7383.org/",
    "confidence": 0.80,
    "notes": "Nearby VFW post in Cary. Has dedicated Benefits Advisor for VA claims support."
  },
  {
    "name": "North Carolina Department of Military & Veterans Affairs (DMVA)",
    "organization": "North Carolina Department of Military & Veterans Affairs",
    "category": "benefits",
    "subcategory": "state-benefits",
    "description": "State government agency providing comprehensive veteran services, benefits information, and coordination with federal VA programs. Maintains 12 accredited benefits specialist offices throughout the state.",
    "phone": "844-624-8387",
    "website": "https://www.milvets.nc.gov",
    "address": "4001 Mail Service Center, Raleigh, NC 27699-4001",
    "city": "Raleigh",
    "state": "NC",
    "eligibility": {
      "veteran_status_required": true,
      "family_eligible": true,
      "docs_required": ["DD-214", "Photo ID"]
    },
    "services": [
      "VA benefits information",
      "State benefits programs",
      "Employment services",
      "Housing assistance",
      "Benefits claims coordination"
    ],
    "hours": "Mon-Fri (call for specific hours)",
    "appointment_required": false,
    "cost": "Free",
    "coverage_area": "North Carolina statewide",
    "source_url": "https://www.milvets.nc.gov",
    "confidence": 0.95,
    "notes": "State-level agency with 12 regional benefits offices across NC."
  }
]
