[
  {
    "name": "American Legion Service Officer",
    "organization": "American Legion Department of Illinois",
    "category": "benefits",
    "subcategory": "vso-services",
    "description": "Expert, no-cost assistance to veterans and their families for VA disability benefits applications and education and employment resources",
    "phone": "312-980-4266",
    "website": "https://www.legion.org/member-services/veterans-services/veterans-benefits/find-a-veteran-service-officer",
    "address": "2122 W. Taylor St, Room 106, Chicago, IL 60612",
    "city": "Chicago",
    "state": "IL",
    "eligibility": {
      "veteran_status_required": true,
      "family_eligible": true,
      "docs_required": ["DD-214", "Photo ID"]
    },
    "services": [
      "Disability compensation claims",
      "Education benefits assistance",
      "Employment resources",
      "Veteran benefits counseling"
    ],
    "hours": "Monday, Wednesday, Friday",
    "appointment_required": false,
    "cost": "Free",
    "coverage_area": "Cook County, Illinois",
    "source_url": "https://www.benefits.va.gov/Chicago/veterans-services-orgs.asp",
    "confidence": 0.95,
    "notes": "Located at VA Regional Office building at 2122 W. Taylor St"
  },
  {
    "name": "VFW Service Officer - Chicago",
    "organization": "Veterans of Foreign Wars Department of Illinois",
    "category": "benefits",
    "subcategory": "vso-services",
    "description": "Free VA benefits assistance provided by VFW Service Officers accredited by VA",
    "phone": "312-980-4284",
    "website": "https://vfwil.org/di/vfw/v2/default.asp?pid=28621",
    "address": "2122 W. Taylor St, Room 105, Chicago, IL 60612",
    "city": "Chicago",
    "state": "IL",
    "eligibility": {
      "veteran_status_required": true,
      "family_eligible": true,
      "docs_required": ["DD-214", "Photo ID"]
    },
    "services": [
      "VA disability compensation",
      "Pension claims",
      "Survivor benefits assistance",
      "Appeals support"
    ],
    "hours": "Monday-Thursday 8:00am-3:30pm, Friday 8:00am-12:00pm",
    "appointment_required": false,
    "cost": "Free",
    "coverage_area": "Cook County, Illinois",
    "source_url": "https://vfwil.org/di/vfw/v2/default.asp?pid=28621",
    "confidence": 0.95,
    "notes": "Located at VA Regional Office building. Walk-in hours: Mon-Thu 8:00-11:30am, 12:30-3:00pm; Fri 8:00am-12:00pm"
  },
  {
    "name": "Disabled American Veterans (DAV) Service Officer - Chicago",
    "organization": "Disabled American Veterans",
    "category": "benefits",
    "subcategory": "vso-services",
    "description": "DAV accredited representatives providing free claims assistance and benefits counseling",
    "phone": "N/A",
    "website": "https://www.dav.org/find-your-local-office/",
    "address": "2122 W. Taylor St, Room 104, Chicago, IL 60612",
    "city": "Chicago",
    "state": "IL",
    "eligibility": {
      "veteran_status_required": true,
      "family_eligible": true,
      "docs_required": ["DD-214", "Photo ID"]
    },
    "services": [
      "Disability compensation claims",
      "Appeals assistance",
      "Benefits counseling",
      "Claims development"
    ],
    "hours": "By appointment",
    "appointment_required": true,
    "cost": "Free",
    "coverage_area": "Cook County, Illinois",
    "source_url": "https://www.dav.org/find-your-local-office/",
    "confidence": 0.90,
    "notes": "Located at VA Regional Office building at 2122 W. Taylor St"
  },
  {
    "name": "AMVETS Service Officer - Chicago",
    "organization": "AMVETS National Service Foundation",
    "category": "benefits",
    "subcategory": "vso-services",
    "description": "AMVETS accredited service officers providing free information, counseling and claims service for all VA benefits",
    "phone": "312-980-4256",
    "website": "https://www.ilamvets.org/veterans-claims",
    "address": "2122 W. Taylor St, Room 109, Chicago, IL 60612",
    "city": "Chicago",
    "state": "IL",
    "eligibility": {
      "veteran_status_required": true,
      "family_eligible": true,
      "docs_required": ["DD-214", "Photo ID"]
    },
    "services": [
      "Disability compensation",
      "Hospitalization assistance",
      "Rehabilitation support",
      "Pension claims",
      "Education benefits",
      "Employment assistance",
      "VA appeal representation"
    ],
    "hours": "Tuesday & Wednesday (Deputy Service Officer)",
    "appointment_required": false,
    "cost": "Free",
    "coverage_area": "Cook County, Illinois",
    "source_url": "https://www.ilamvets.org/veterans-claims",
    "confidence": 0.90,
    "notes": "No membership required to receive assistance. Accredited by Department of Veterans Affairs"
  },
  {
    "name": "Chicago Veterans Regional Office",
    "organization": "U.S. Department of Veterans Affairs",
    "category": "benefits",
    "subcategory": "disability-claims",
    "description": "VA regional office providing counseling about eligibility for benefits and assistance with applications",
    "phone": "312-980-4470",
    "website": "https://www.benefits.va.gov/Chicago/",
    "address": "2122 W. Taylor St, Chicago, IL 60612",
    "city": "Chicago",
    "state": "IL",
    "eligibility": {
      "veteran_status_required": true,
      "family_eligible": true,
      "docs_required": ["DD-214", "Photo ID"]
    },
    "services": [
      "Compensation counseling",
      "Education benefits",
      "Insurance",
      "Loan guaranty",
      "Pension benefits",
      "Veteran readiness and employment",
      "Benefits applications"
    ],
    "hours": "By appointment via VERA portal",
    "appointment_required": true,
    "cost": "Free",
    "coverage_area": "Illinois and northwest Indiana",
    "source_url": "https://www.benefits.va.gov/Chicago/",
    "confidence": 0.95,
    "notes": "Serves 62,000+ veterans in Chicago area. Walk-in visits also accepted"
  },
  {
    "name": "Veterans Assistance Commission of Cook County",
    "organization": "Veterans Assistance Commission of Cook County (VACCC)",
    "category": "benefits",
    "subcategory": "disability-claims",
    "description": "Nonprofit providing free expert assistance from VSOs for claims, appeals, and emergency financial assistance to veterans",
    "phone": "312-433-6010",
    "website": "https://vaccookcounty.org/",
    "address": "1100 S. Hamilton Ave, Lower Level, Chicago, IL 60612",
    "city": "Chicago",
    "state": "IL",
    "eligibility": {
      "veteran_status_required": true,
      "family_eligible": true,
      "docs_required": ["DD-214", "Photo ID"]
    },
    "services": [
      "Disability compensation claims",
      "Pension claims",
      "Survivor benefits",
      "Appeals assistance",
      "Higher-Level Reviews",
      "Board of Veterans Appeals support",
      "Emergency financial aid",
      "Housing assistance referrals",
      "Employment counseling",
      "Mental health referrals",
      "Legal aid referrals",
      "Education benefits"
    ],
    "hours": "Monday-Friday 8:30am-3:00pm",
    "appointment_required": false,
    "cost": "Free",
    "coverage_area": "Cook County, Illinois",
    "source_url": "https://vaccookcounty.org/",
    "confidence": 0.95,
    "notes": "Provides emergency aid for rent, utilities, transportation, food, burial, and cremation assistance"
  },
  {
    "name": "Cook County Department of Veterans Affairs",
    "organization": "Cook County Department of Veterans Affairs (CCVA)",
    "category": "benefits",
    "subcategory": "state-benefits",
    "description": "County government agency empowering veterans through workshops, outreach services, and resource networks",
    "phone": "N/A",
    "website": "https://www.cookcountyil.gov/agency/veterans-affairs",
    "address": "161 N. Clark St, Suite 2400A, Chicago, IL 60601",
    "city": "Chicago",
    "state": "IL",
    "eligibility": {
      "veteran_status_required": true,
      "family_eligible": true,
      "docs_required": ["DD-214"]
    },
    "services": [
      "Workshops",
      "Outreach services",
      "Resource navigation",
      "Veterans benefits counseling"
    ],
    "hours": "Monday, Wednesday, Thursday 9:00am-4:00pm (by appointment)",
    "appointment_required": true,
    "cost": "Free",
    "coverage_area": "Cook County, Illinois",
    "source_url": "https://www.cookcountyil.gov/agency/veterans-affairs",
    "confidence": 0.90,
    "notes": "Email veterans.affairs@cookcountyil.gov to schedule appointment"
  },
  {
    "name": "UIC Veterans Legal Clinic",
    "organization": "University of Illinois Chicago College of Law",
    "category": "legal",
    "subcategory": "appeals",
    "description": "Free legal clinic specializing in appeals of denied VA benefits claims and discharge upgrades",
    "phone": "855-452-3526",
    "website": "https://law.uic.edu/experiential-education/clinics/veterans/",
    "address": "300 S. State St, Chicago, IL 60604",
    "city": "Chicago",
    "state": "IL",
    "eligibility": {
      "veteran_status_required": true,
      "family_eligible": true,
      "docs_required": ["DD-214", "VA decision letter"]
    },
    "services": [
      "VA benefits appeals",
      "Service-connected benefits appeals",
      "Pension benefits appeals",
      "Survivor benefits appeals",
      "Education benefits appeals",
      "Discharge upgrades",
      "Representation before VA appeals courts"
    ],
    "hours": "By appointment",
    "appointment_required": true,
    "cost": "Free",
    "coverage_area": "Illinois",
    "source_url": "https://law.uic.edu/experiential-education/clinics/veterans/",
    "confidence": 0.95,
    "notes": "Contact through IL-AFLAN hotline or direct clinic contact"
  },
  {
    "name": "Illinois Armed Forces Legal Aid Network (IL-AFLAN)",
    "organization": "Illinois Armed Forces Legal Aid Network",
    "category": "legal",
    "subcategory": "appeals",
    "description": "Statewide network providing FREE legal help to current and former military with VA benefits appeals and civil legal problems",
    "phone": "855-452-3526",
    "website": "https://ilaflan.org/",
    "address": "180 N Stetson Ave, Suite 820, Chicago, IL 60601",
    "city": "Chicago",
    "state": "IL",
    "eligibility": {
      "veteran_status_required": true,
      "family_eligible": true,
      "income_requirement": "Low to moderate income"
    },
    "services": [
      "VA benefits appeals",
      "Court of Appeals for Veterans Claims representation",
      "Disability claims assistance",
      "Civil legal problems",
      "Free attorney consultation"
    ],
    "hours": "Monday-Friday 9:00am (hotline)",
    "appointment_required": false,
    "cost": "Free",
    "coverage_area": "Illinois statewide",
    "source_url": "https://ilaflan.org/",
    "confidence": 0.95,
    "notes": "Call 855-IL-AFLAN (855-452-3526) to speak with attorney. Partnership with National Veterans Legal Services Program for federal court representation"
  },
  {
    "name": "Jesse Brown VA Medical Center - Veteran Benefits",
    "organization": "Veterans Health Administration - VA Chicago Health Care System",
    "category": "benefits",
    "subcategory": "disability-claims",
    "description": "VA medical center providing health care and benefits counseling for Chicago-area veterans",
    "phone": "N/A",
    "website": "https://www.va.gov/chicago-health-care/",
    "address": "820 S Damen Ave, Chicago, IL 60612",
    "city": "Chicago",
    "state": "IL",
    "eligibility": {
      "veteran_status_required": true,
      "family_eligible": false,
      "docs_required": ["DD-214"]
    },
    "services": [
      "Health care",
      "Veterans benefits counseling",
      "Education and training",
      "Employment assistance",
      "Disability benefits",
      "Minority veteran support"
    ],
    "hours": "Full service hospital",
    "appointment_required": false,
    "cost": "Free",
    "coverage_area": "Chicago, Cook County, Illinois, and 6 northwest Indiana counties",
    "source_url": "https://www.va.gov/chicago-health-care/locations/jesse-brown-department-of-veterans-affairs-medical-center/",
    "confidence": 0.90,
    "notes": "Serves 62,000 veterans. Free parking for veterans with appointments. Military Service Pass available for free Chicago public transit"
  },
  {
    "name": "American Legion Veteran Service Office - Detroit",
    "organization": "American Legion",
    "category": "benefits",
    "subcategory": "vso-services",
    "description": "VA benefits counseling, disability claims assistance, education resources, and veteran services",
    "phone": "313-964-6640",
    "website": "https://www.legion.org",
    "address": "477 Michigan Avenue, Room 1231, Detroit, MI 48226",
    "city": "Detroit",
    "state": "MI",
    "eligibility": {
      "veteran_status_required": true,
      "family_eligible": true,
      "docs_required": ["DD-214", "Photo ID"]
    },
    "services": [
      "VA benefits application assistance",
      "Disability claims filing",
      "Education benefits counseling",
      "Employment resources",
      "Benefits verification"
    ],
    "hours": "Monday-Friday 8:00 AM - 4:00 PM",
    "appointment_required": false,
    "cost": "Free",
    "coverage_area": "Detroit, Wayne County, Southeast Michigan",
    "source_url": "https://www.benefits.va.gov/Detroit/veterans-services-orgs.asp",
    "confidence": 0.95,
    "notes": "Located in Patrick V. McNamara Federal Building with other VSO offices"
  },
  {
    "name": "Disabled American Veterans (DAV) Service Office - Detroit",
    "organization": "Disabled American Veterans",
    "category": "benefits",
    "subcategory": "vso-services",
    "description": "Free VA benefits counseling, disability claims assistance, and veteran advocacy services",
    "phone": "313-964-6595",
    "website": "https://www.dav.org",
    "address": "477 Michigan Avenue, Room 1234, Detroit, MI 48226",
    "city": "Detroit",
    "state": "MI",
    "eligibility": {
      "veteran_status_required": true,
      "family_eligible": true,
      "docs_required": ["DD-214", "Photo ID"]
    },
    "services": [
      "Benefits counseling",
      "Disability claims filing",
      "Claim status tracking",
      "Veteran advocacy",
      "Benefits verification"
    ],
    "hours": "Monday-Friday 8:00 AM - 4:00 PM",
    "appointment_required": false,
    "cost": "Free",
    "coverage_area": "Detroit, Wayne County, Southeast Michigan",
    "source_url": "https://www.benefits.va.gov/Detroit/veterans-services-orgs.asp",
    "confidence": 0.95,
    "notes": "Located in Patrick V. McNamara Federal Building"
  },
  {
    "name": "Veterans of Foreign Wars (VFW) Service Office - Detroit",
    "organization": "Veterans of Foreign Wars",
    "category": "benefits",
    "subcategory": "vso-services",
    "description": "Free VA benefits counseling, disability claims assistance, and veteran services",
    "phone": "313-964-6510",
    "website": "https://vfwmi.org",
    "address": "477 Michigan Avenue, Room 1228, Detroit, MI 48226",
    "city": "Detroit",
    "state": "MI",
    "eligibility": {
      "veteran_status_required": true,
      "family_eligible": true,
      "docs_required": ["DD-214", "Photo ID"]
    },
    "services": [
      "Benefits counseling",
      "Disability claims assistance",
      "Veteran event information",
      "Community resources",
      "Benefits verification"
    ],
    "hours": "Monday-Friday 8:00 AM - 4:00 PM",
    "appointment_required": false,
    "cost": "Free",
    "coverage_area": "Detroit, Wayne County, Southeast Michigan",
    "source_url": "https://www.benefits.va.gov/Detroit/veterans-services-orgs.asp",
    "confidence": 0.95,
    "notes": "Located in Patrick V. McNamara Federal Building"
  },
  {
    "name": "AMVETS Service Office - Detroit",
    "organization": "AMVETS",
    "category": "benefits",
    "subcategory": "vso-services",
    "description": "VA claims filing assistance, benefits counseling, and veteran advocacy services",
    "phone": "313-471-3982",
    "website": "https://amvetsmichigan.org",
    "address": "477 Michigan Avenue, Suite 1103, Detroit, MI 48226",
    "city": "Detroit",
    "state": "MI",
    "eligibility": {
      "veteran_status_required": true,
      "family_eligible": true,
      "docs_required": ["DD-214", "Photo ID"]
    },
    "services": [
      "VA claim writing and submission",
      "Benefits counseling",
      "Employment assistance",
      "Veteran advocacy"
    ],
    "hours": "Monday-Friday 8:00 AM - 4:00 PM",
    "appointment_required": false,
    "cost": "Free",
    "coverage_area": "Detroit, Wayne County, Southeast Michigan",
    "source_url": "https://amvetsnsf.org/core/assets/amvetsnsf/docs/service-officers-contact-list.pdf",
    "confidence": 0.90,
    "notes": "Located in Patrick V. McNamara Federal Building"
  },
  {
    "name": "Detroit VA Regional Benefit Office",
    "organization": "Department of Veterans Affairs",
    "category": "benefits",
    "subcategory": "disability-claims",
    "description": "Federal VA benefits administration including disability compensation, pensions, education, life insurance, and home loans",
    "phone": "800-827-1000",
    "website": "https://www.benefits.va.gov/detroit/",
    "address": "477 Michigan Avenue, 12th Floor, Detroit, MI 48226",
    "city": "Detroit",
    "state": "MI",
    "eligibility": {
      "veteran_status_required": true,
      "family_eligible": true,
      "docs_required": ["DD-214", "Photo ID"]
    },
    "services": [
      "Disability compensation claims",
      "Pension benefits",
      "Education benefits (GI Bill)",
      "Life insurance",
      "Home loans",
      "Benefits counseling",
      "Claim status tracking"
    ],
    "hours": "Monday-Friday 8:00 AM - 4:00 PM",
    "appointment_required": false,
    "cost": "Free",
    "coverage_area": "Michigan (Regional Office serves)",
    "source_url": "https://www.va.gov/detroit-va-regional-benefit-office/",
    "confidence": 0.98,
    "notes": "Walk-in or appointment available via VERA scheduling system"
  },
  {
    "name": "Wayne County Veterans Services Office",
    "organization": "Wayne County Government",
    "category": "benefits",
    "subcategory": "state-benefits",
    "description": "County financial assistance for veterans including emergency aid, housing, utilities, burial, and other support services",
    "phone": "313-224-5045",
    "website": "https://www.waynecountymi.gov/Government/Departments/Health-Human-Veterans-Services/Veterans-Services",
    "address": "400 Monroe Street, Suite 405, Detroit, MI 48226",
    "city": "Detroit",
    "state": "MI",
    "eligibility": {
      "veteran_status_required": true,
      "family_eligible": false,
      "docs_required": ["DD-214", "Proof of residency"]
    },
    "services": [
      "Emergency financial assistance",
      "Housing assistance (rent, mortgage)",
      "Utilities assistance",
      "Food assistance",
      "Furniture/moving assistance",
      "Vehicle repairs",
      "Burial assistance",
      "Property tax assistance"
    ],
    "hours": "Monday-Thursday 8:00 AM - 3:30 PM",
    "appointment_required": false,
    "cost": "Free",
    "coverage_area": "Wayne County",
    "source_url": "https://www.waynecountymi.gov/Government/Departments/Health-Human-Veterans-Services/Veterans-Services",
    "confidence": 0.98,
    "notes": "Does not handle federal VA benefits; satellite office in Garden City open Tuesday/Thursday"
  },
  {
    "name": "Detroit Vet Center",
    "organization": "Department of Veterans Affairs",
    "category": "benefits",
    "subcategory": "appeals",
    "description": "Confidential counseling and support services for veterans and service members with mental health and transition support",
    "phone": "313-822-1141",
    "website": "https://www.va.gov/detroit-vet-center/",
    "address": "11214 East Jefferson Avenue, Detroit, MI 48214",
    "city": "Detroit",
    "state": "MI",
    "eligibility": {
      "veteran_status_required": true,
      "family_eligible": true,
      "docs_required": ["DD-214"]
    },
    "services": [
      "Counseling for PTSD",
      "Depression support",
      "Military sexual trauma counseling",
      "Mental health services",
      "Connection to additional VA resources",
      "Non-medical confidential help"
    ],
    "hours": "Monday-Friday 8:00 AM - 4:30 PM",
    "appointment_required": false,
    "cost": "Free",
    "coverage_area": "Detroit, Wayne County",
    "source_url": "https://www.va.gov/detroit-vet-center/",
    "confidence": 0.98,
    "notes": "24/7 Veterans Crisis Line available at 988 (press 1)"
  },
  {
    "name": "Michigan Veteran Resource Service Center (MVRSC)",
    "organization": "Michigan Veterans Affairs Agency",
    "category": "benefits",
    "subcategory": "state-benefits",
    "description": "Statewide resource center connecting veterans to Veteran Service Officers and access to discharge documents and benefits",
    "phone": "800-642-4838",
    "website": "https://www.mivabenefits.org/",
    "address": "State of Michigan (multiple locations)",
    "city": "Michigan",
    "state": "MI",
    "eligibility": {
      "veteran_status_required": true,
      "family_eligible": true,
      "docs_required": []
    },
    "services": [
      "Benefits counseling",
      "Discharge document assistance",
      "Veteran Service Officer connections",
      "Resource referrals",
      "Benefits information"
    ],
    "hours": "Monday-Friday 8:00 AM - 5:00 PM, 24/7 (211 agents after hours)",
    "appointment_required": false,
    "cost": "Free",
    "coverage_area": "Michigan statewide",
    "source_url": "https://www.mivabenefits.org/contact-us/",
    "confidence": 0.98,
    "notes": "Primary entry point for Michigan veterans services"
  },
  {
    "name": "Franklin County Veterans Service Commission",
    "organization": "Franklin County Government",
    "category": "benefits",
    "subcategory": "state-benefits",
    "description": "Provides VA claims assistance, emergency financial assistance, medical transportation, VA disability claims, pension benefits, survivor benefits, and employment assistance",
    "phone": "(614) 525-2500",
    "website": "https://vets.franklincountyohio.gov",
    "address": "280 E. Broad St., 1st Floor, Columbus, OH 43215",
    "city": "Columbus",
    "state": "OH",
    "eligibility": {
      "veteran_status_required": true,
      "family_eligible": true,
      "docs_required": ["DD-214", "Photo ID"]
    },
    "services": [
      "VA disability claims assistance",
      "Pension benefits counseling",
      "Survivor benefits assistance",
      "Emergency financial assistance",
      "Medical transportation",
      "Employment assistance",
      "VA health care and education benefits"
    ],
    "hours": "Monday-Friday by appointment",
    "appointment_required": true,
    "cost": "Free",
    "coverage_area": "Franklin County",
    "source_url": "https://vets.franklincountyohio.gov/home",
    "confidence": 0.95,
    "notes": "County-level veteran services with needs-based financial assistance"
  },
  {
    "name": "DAV Service Office - Columbus",
    "organization": "Disabled American Veterans (DAV)",
    "category": "benefits",
    "subcategory": "vso-services",
    "description": "Accredited Veterans Service Officers providing free disability compensation assistance, pension appeals, and VA benefits support",
    "phone": "(614) 257-5487",
    "website": "https://ohiodav.org",
    "address": "420 N. James Road, Columbus, OH 43219-1834",
    "city": "Columbus",
    "state": "OH",
    "eligibility": {
      "veteran_status_required": true,
      "family_eligible": true,
      "docs_required": ["DD-214"]
    },
    "services": [
      "Disability compensation claims",
      "Pension benefits",
      "Appeals assistance",
      "VA benefits counseling"
    ],
    "hours": "Monday-Thursday by appointment",
    "appointment_required": true,
    "cost": "Free",
    "coverage_area": "Columbus and surrounding areas",
    "source_url": "https://ohiodav.org/service-office-directory-dav-department-of-ohio/",
    "confidence": 0.92,
    "notes": "Located within VA Outpatient Clinic, accredited service officer available by appointment only"
  },
  {
    "name": "American Legion Service Office - Columbus",
    "organization": "The American Legion Department of Ohio",
    "category": "benefits",
    "subcategory": "vso-services",
    "description": "Accredited service officers providing free VA disability benefits assistance, pension claims, and appeals support",
    "phone": "(216) 522-3504",
    "website": "https://www.ohiolegion.com",
    "address": "420 N James Rd, Room 1A045, Columbus, OH 43219",
    "city": "Columbus",
    "state": "OH",
    "eligibility": {
      "veteran_status_required": true,
      "family_eligible": true,
      "docs_required": ["DD-214"]
    },
    "services": [
      "VA disability compensation assistance",
      "Pension claims support",
      "Appeals representation",
      "Survivor benefits counseling"
    ],
    "hours": "Monday-Friday (call for availability)",
    "appointment_required": true,
    "cost": "Free",
    "coverage_area": "Ohio",
    "source_url": "https://www.ohiolegion.com/department-service-officers/",
    "confidence": 0.90,
    "notes": "Located at Chalmers P. Wylie VA Ambulatory Care Center"
  },
  {
    "name": "AMVETS Department Service Officer - Columbus",
    "organization": "AMVETS Department of Ohio",
    "category": "benefits",
    "subcategory": "vso-services",
    "description": "AMVETS Veteran Service Officers providing free assistance with disability claims, appeals, pension benefits, and VA benefits navigation",
    "phone": "(614) 388-7342",
    "website": "https://www.ohamvets.org",
    "address": "Columbus, OH",
    "city": "Columbus",
    "state": "OH",
    "eligibility": {
      "veteran_status_required": true,
      "family_eligible": true,
      "docs_required": ["DD-214"]
    },
    "services": [
      "Decision ready claims assistance",
      "Fully developed claims support",
      "Claims reconsideration",
      "Appeals assistance",
      "Aid & Attendance benefits",
      "Individual Unemployability",
      "Vocational Rehabilitation referrals"
    ],
    "hours": "8:00 AM - 5:00 PM Monday-Friday",
    "appointment_required": false,
    "cost": "Free",
    "coverage_area": "Central Ohio",
    "source_url": "https://www.ohamvets.org/",
    "confidence": 0.90,
    "notes": "AMVETS is a Congressional chartered veteran advocacy organization"
  },
  {
    "name": "Columbus VA Vet Center",
    "organization": "Veterans Affairs",
    "category": "benefits",
    "subcategory": "state-benefits",
    "description": "Provides counseling, benefits referral, education support, and mental health services for combat veterans and their families",
    "phone": "(614) 257-5550",
    "website": "https://www.va.gov/columbus-oh-vet-center/",
    "address": "855 Bethel Road, Columbus, OH 43214",
    "city": "Columbus",
    "state": "OH",
    "eligibility": {
      "veteran_status_required": true,
      "family_eligible": true,
      "docs_required": ["DD-214"]
    },
    "services": [
      "Counseling services",
      "Benefits referral",
      "Education support",
      "Mental health services",
      "Bereavement counseling for survivors"
    ],
    "hours": "Monday-Friday 8:00 AM - 4:30 PM",
    "appointment_required": true,
    "cost": "Free",
    "coverage_area": "Central Ohio",
    "source_url": "https://www.va.gov/columbus-oh-vet-center/",
    "confidence": 0.95,
    "notes": "24/7 general inquiries available at 877-927-8387"
  },
  {
    "name": "VFW Department of Ohio",
    "organization": "Veterans of Foreign Wars (VFW)",
    "category": "benefits",
    "subcategory": "vso-services",
    "description": "VFW Service Officers trained to assist with disability compensation, pension claims, death benefits, and appeals before VA and Board of Veterans Appeals",
    "phone": "(614) 224-1838",
    "website": "https://vfwoh.org",
    "address": "35 E Chestnut St Ste 506, Columbus, OH 43215",
    "city": "Columbus",
    "state": "OH",
    "eligibility": {
      "veteran_status_required": true,
      "family_eligible": true,
      "docs_required": ["DD-214"]
    },
    "services": [
      "Disability compensation assistance",
      "Pension claims support",
      "Death benefits assistance",
      "VA and Board of Veterans Appeals representation"
    ],
    "hours": "Monday-Friday (call for hours)",
    "appointment_required": false,
    "cost": "Free",
    "coverage_area": "Ohio",
    "source_url": "https://vfwoh.org/di/vfw/v2/default.asp?nid=6",
    "confidence": 0.92,
    "notes": "Service offered free of charge to all veterans"
  },
  {
    "name": "Ohio Department of Veterans Services",
    "organization": "State of Ohio",
    "category": "benefits",
    "subcategory": "state-benefits",
    "description": "State government department overseeing county veteran services offices and providing veteran support, benefits coordination, and advocacy",
    "phone": "(614) 644-0898",
    "website": "https://dvs.ohio.gov",
    "address": "77 South High Street, 7th Floor, Columbus, OH 43215",
    "city": "Columbus",
    "state": "OH",
    "eligibility": {
      "veteran_status_required": true,
      "family_eligible": true,
      "docs_required": ["DD-214"]
    },
    "services": [
      "County veteran services coordination",
      "Benefits guidance",
      "Veteran advocacy",
      "Ohio Veterans Homes referral"
    ],
    "hours": "Monday-Friday 8:00 AM - 4:30 PM",
    "appointment_required": false,
    "cost": "Free",
    "coverage_area": "Ohio",
    "source_url": "https://dvs.ohio.gov",
    "confidence": 0.90,
    "notes": "State cabinet-level agency overseeing 88 county veteran service offices"
  },
  {
    "name": "Ohio Military/Veterans Legal Assistance Project",
    "organization": "Stateside Legal",
    "category": "legal",
    "subcategory": "appeals",
    "description": "Free legal assistance call center for central Ohio veterans and military personnel with civil legal problems including VA appeals and military discharge issues",
    "phone": "(877) 759-6182",
    "website": "https://www.statesidelegal.org",
    "address": "Ohio-based (call center)",
    "city": "Multiple",
    "state": "OH",
    "eligibility": {
      "veteran_status_required": true,
      "family_eligible": true,
      "docs_required": []
    },
    "services": [
      "VA disability appeals assistance",
      "Military discharge upgrades",
      "Housing legal issues",
      "Family law matters",
      "Income support issues"
    ],
    "hours": "Call for availability",
    "appointment_required": false,
    "cost": "Free",
    "coverage_area": "Central and Southeast Ohio",
    "source_url": "https://www.statesidelegal.org/ohio-militaryveterans-legal-assistance-project-0",
    "confidence": 0.85,
    "notes": "Part of Stateside Legal network providing free legal services to military and veterans"
  },
  {
    "name": "Columbus VA Benefits Office",
    "organization": "Veterans Affairs",
    "category": "benefits",
    "subcategory": "disability-claims",
    "description": "VA federal office providing benefits application, claims processing, and benefits management for disability, education, health care and other VA programs",
    "phone": "(800) 827-1000",
    "website": "https://www.va.gov",
    "address": "420 North James Road, Room 1A-052, Columbus, OH 43219",
    "city": "Columbus",
    "state": "OH",
    "eligibility": {
      "veteran_status_required": true,
      "family_eligible": true,
      "docs_required": ["DD-214"]
    },
    "services": [
      "VA disability compensation claims",
      "Health care enrollment",
      "Education benefits (GI Bill)",
      "Pension benefits",
      "Survivor benefits"
    ],
    "hours": "8:00 AM - 4:30 PM Eastern Standard Time",
    "appointment_required": false,
    "cost": "Free",
    "coverage_area": "Central Ohio",
    "source_url": "https://www.va.gov/central-ohio-health-care/",
    "confidence": 0.95,
    "notes": "Located at Chalmers P. Wylie Ambulatory Care Center"
  },
  {
    "name": "American Legion Veterans Service Officer - Indianapolis",
    "organization": "American Legion",
    "category": "benefits",
    "subcategory": "vso-services",
    "description": "Expert, no-cost assistance to veterans and their families with VA disability benefits applications and resources for education, employment, and benefits",
    "phone": "317-916-3605",
    "website": "https://www.legion.org/member-services/veterans-services/veterans-benefits/find-a-veteran-service-officer",
    "address": "575 N Pennsylvania St, Room 325, Indianapolis, IN 46204",
    "city": "Indianapolis",
    "state": "IN",
    "eligibility": {
      "veteran_status_required": true,
      "family_eligible": true,
      "docs_required": ["DD-214", "Photo ID"]
    },
    "services": [
      "VA disability benefits applications",
      "Benefit eligibility counseling",
      "Education assistance",
      "Employment resources",
      "Benefits claim filing"
    ],
    "hours": "Monday-Friday 8:00am-4:00pm",
    "appointment_required": false,
    "cost": "Free",
    "coverage_area": "Marion County and Indiana",
    "source_url": "https://www.benefits.va.gov/Indianapolis/veterans-services-orgs.asp",
    "confidence": 0.95,
    "notes": "Located in Indianapolis Federal Building on 3rd floor. Walk-ins accepted. Call 1-800-827-1000 for appointments."
  },
  {
    "name": "Disabled American Veterans (DAV) Service Officer - Indianapolis",
    "organization": "Disabled American Veterans",
    "category": "benefits",
    "subcategory": "vso-services",
    "description": "VA-accredited VSO providing free assistance with disability compensation, pension benefits, and VA appeals for disabled veterans",
    "phone": "317-916-3615",
    "website": "https://www.dav.org/contact-us/",
    "address": "575 N Pennsylvania St, Room 324, Indianapolis, IN 46204",
    "city": "Indianapolis",
    "state": "IN",
    "eligibility": {
      "veteran_status_required": true,
      "family_eligible": true,
      "docs_required": ["DD-214", "Photo ID"]
    },
    "services": [
      "VA disability claims assistance",
      "Disability compensation",
      "Pension benefits",
      "VA appeals",
      "Benefits counseling"
    ],
    "hours": "Monday-Friday 8:00am-4:00pm",
    "appointment_required": false,
    "cost": "Free",
    "coverage_area": "Marion County and Indiana",
    "source_url": "https://www.benefits.va.gov/Indianapolis/veterans-services-orgs.asp",
    "confidence": 0.95,
    "notes": "National DAV hotline: 877-426-2838 (877 I AM A VET). Located in Indianapolis Federal Building."
  },
  {
    "name": "Veterans of Foreign Wars (VFW) Service Officer - Indianapolis",
    "organization": "Veterans of Foreign Wars",
    "category": "benefits",
    "subcategory": "vso-services",
    "description": "VA-accredited VSO providing free assistance with VA benefits, disability claims, and veteran support services",
    "phone": "317-916-3629",
    "website": "https://vfwin.org/",
    "address": "575 N Pennsylvania St, Room 319, Indianapolis, IN 46204",
    "city": "Indianapolis",
    "state": "IN",
    "eligibility": {
      "veteran_status_required": true,
      "family_eligible": true,
      "docs_required": ["DD-214", "Photo ID"]
    },
    "services": [
      "VA benefits assistance",
      "Disability claims",
      "Benefits counseling",
      "Service officer support"
    ],
    "hours": "Monday-Friday 8:00am-4:00pm",
    "appointment_required": false,
    "cost": "Free",
    "coverage_area": "Marion County and Indiana",
    "source_url": "https://www.benefits.va.gov/Indianapolis/veterans-services-orgs.asp",
    "confidence": 0.90,
    "notes": "Also VFW Post 7119 at 6525 N Lee Rd, Indianapolis, IN 46236 (317-823-6180)"
  },
  {
    "name": "AMVETS Service Officer - Indianapolis",
    "organization": "AMVETS",
    "category": "benefits",
    "subcategory": "vso-services",
    "description": "VA-accredited VSO providing free VA claims assistance, employment support, and veteran advocacy services",
    "phone": "317-226-7919",
    "website": "https://www.amvets.org",
    "address": "575 N Pennsylvania St, Suite 307, Indianapolis, IN 46204",
    "city": "Indianapolis",
    "state": "IN",
    "eligibility": {
      "veteran_status_required": true,
      "family_eligible": true,
      "docs_required": ["DD-214", "Photo ID"]
    },
    "services": [
      "VA claim filing assistance",
      "Disability compensation claims",
      "Employment assistance",
      "Benefits advocacy"
    ],
    "hours": "Monday-Friday 8:00am-4:00pm",
    "appointment_required": false,
    "cost": "Free",
    "coverage_area": "Marion County and Indiana",
    "source_url": "https://www.yelp.com/biz/amvets-veterans-assistance-indianapolis",
    "confidence": 0.90,
    "notes": "Located in Indianapolis Federal Building. Also AMVETS Post 99 at 2840 Lafayette Rd, Indianapolis, IN 46222"
  },
  {
    "name": "Paralyzed Veterans of America (PVA) Service Officer - Indianapolis",
    "organization": "Paralyzed Veterans of America",
    "category": "benefits",
    "subcategory": "vso-services",
    "description": "VA-accredited VSO specializing in assistance for veterans with spinal cord injury and related disabilities",
    "phone": "317-916-3626",
    "website": "https://pva.org/find-support/national-service-office/",
    "address": "575 N Pennsylvania St, Room 313, Indianapolis, IN 46204",
    "city": "Indianapolis",
    "state": "IN",
    "eligibility": {
      "veteran_status_required": true,
      "family_eligible": true,
      "docs_required": ["DD-214", "Photo ID"]
    },
    "services": [
      "VA benefits assistance",
      "Spinal cord injury support",
      "Disability claims",
      "Benefits counseling"
    ],
    "hours": "Monday-Friday 8:00am-4:00pm",
    "appointment_required": false,
    "cost": "Free",
    "coverage_area": "Indiana and Kentucky",
    "source_url": "https://www.benefits.va.gov/Indianapolis/veterans-services-orgs.asp",
    "confidence": 0.90,
    "notes": "Specializes in support for spinal cord injury and dysfunction. Kentucky-Indiana Chapter headquarters in Louisville."
  },
  {
    "name": "Indianapolis VA Regional Benefit Office",
    "organization": "U.S. Department of Veterans Affairs",
    "category": "benefits",
    "subcategory": "disability-claims",
    "description": "Federal VA office administering compensation, pension, education, insurance, loan guaranty, and vocational rehabilitation benefits",
    "phone": "1-800-827-1000",
    "website": "https://www.va.gov/indianapolis-va-regional-benefit-office/",
    "address": "575 N Pennsylvania St, Room 342, Indianapolis, IN 46204",
    "city": "Indianapolis",
    "state": "IN",
    "eligibility": {
      "veteran_status_required": true,
      "family_eligible": true,
      "docs_required": ["DD-214", "Photo ID"]
    },
    "services": [
      "Compensation claims",
      "Pension benefits",
      "VA education benefits",
      "Loan guaranty",
      "Vocational rehabilitation",
      "Benefits counseling",
      "Military sexual trauma support"
    ],
    "hours": "Monday-Friday 8:00am-4:00pm",
    "appointment_required": false,
    "cost": "Free",
    "coverage_area": "Indiana and surrounding states",
    "source_url": "https://www.va.gov/indianapolis-va-regional-benefit-office/",
    "confidence": 0.95,
    "notes": "Federal entrance on Pennsylvania Street. Proper picture ID required. Walk-ins accepted. Call for appointments with VERA."
  },
  {
    "name": "Marion County Office of Veteran Services",
    "organization": "Marion County Government / City of Indianapolis",
    "category": "benefits",
    "subcategory": "state-benefits",
    "description": "County veteran services office connecting veterans with local resources and assisting with benefits applications and veteran support programs",
    "phone": "317-327-8387",
    "website": "https://www.indy.gov/activity/office-of-veteran-services",
    "address": "Indianapolis, IN (Multiple locations - East and West side offices)",
    "city": "Indianapolis",
    "state": "IN",
    "eligibility": {
      "veteran_status_required": true,
      "family_eligible": true,
      "docs_required": []
    },
    "services": [
      "Veteran resource navigation",
      "Benefits application assistance",
      "Community resource connection",
      "VA benefits support"
    ],
    "hours": "Walk-in hours available at different sites and days",
    "appointment_required": false,
    "cost": "Free",
    "coverage_area": "Marion County",
    "source_url": "https://www.indy.gov/activity/office-of-veteran-services",
    "confidence": 0.90,
    "notes": "County has 4 full-time CVSOs (County Veteran Service Officers). Email: [email protected] or visit Veteran.Indy.gov"
  },
  {
    "name": "Indianapolis Veteran Legal Clinic",
    "organization": "Indiana Legal Services",
    "category": "legal",
    "subcategory": "appeals",
    "description": "Free monthly legal clinic providing assistance with VA appeals, military records, discharge upgrades, and veteran-related legal issues",
    "phone": "317-631-9410",
    "website": "https://www.indianalegalservices.org/opportunities/help-a-veteran/",
    "address": "Richard L. Roudebush VA Medical Center, 1481 W. 10th St., Indianapolis, IN 46202",
    "city": "Indianapolis",
    "state": "IN",
    "eligibility": {
      "veteran_status_required": true,
      "family_eligible": false,
      "docs_required": ["Photo ID"]
    },
    "services": [
      "VA appeals assistance",
      "Military discharge upgrade help",
      "Military records corrections",
      "VA overpayment issues",
      "Criminal record expungement",
      "Legal consultation"
    ],
    "hours": "2nd Tuesday of each month, 11:00am-4:00pm (sign in by 3:00pm)",
    "appointment_required": false,
    "cost": "Free",
    "coverage_area": "Indianapolis and Marion County",
    "source_url": "https://events.in.gov/event/indianapolis-veteran-legal-clinic-5859",
    "confidence": 0.95,
    "notes": "Walk-in clinic. Low-income veterans in need receive free legal help. Ask-a-lawyer format with volunteer attorneys."
  },
  {
    "name": "Hennepin County Veterans Services",
    "organization": "Hennepin County Human Services",
    "category": "benefits",
    "subcategory": "disability-claims",
    "description": "Accredited county veterans service office providing free assistance with VA disability compensation claims, pension benefits, medical/dental/optical benefits, and emergency resources.",
    "phone": "612-348-3300",
    "website": "https://www.hennepin.us/en/residents/human-services/veterans-service",
    "address": "300 South 6th Street, Minneapolis, MN 55487",
    "city": "Minneapolis",
    "state": "MN",
    "eligibility": {
      "veteran_status_required": true,
      "family_eligible": true,
      "docs_required": ["DD-214", "Photo ID"]
    },
    "services": [
      "Disability compensation claims",
      "Pension and property tax benefits",
      "Medical benefits assistance",
      "Dental and optical benefits",
      "Burial assistance",
      "Emergency housing resources",
      "Mental health referrals",
      "Suicide prevention resources"
    ],
    "hours": "Monday-Friday 8:00 AM - 4:30 PM",
    "appointment_required": false,
    "cost": "Free",
    "coverage_area": "Hennepin County",
    "source_url": "https://www.hennepin.us/en/residents/human-services/veterans-service",
    "confidence": 0.95,
    "notes": "Accepts walk-in visits and appointments. Online intake form available. Assigned representative calls within 3 business days."
  },
  {
    "name": "DAV (Disabled American Veterans) - Minnesota State Office",
    "organization": "Disabled American Veterans of Minnesota",
    "category": "benefits",
    "subcategory": "vso-services",
    "description": "Nationally accredited VSO providing free benefits assistance through trained Service Officers. Helps with VA disability compensation, pension, vocational rehabilitation, education, life insurance, and death benefits.",
    "phone": "651-291-1212",
    "website": "https://davmn.org/",
    "address": "State Veterans Service Building, 20 West 12th Street, 3rd Floor, St. Paul, MN 55155",
    "city": "St. Paul",
    "state": "MN",
    "eligibility": {
      "veteran_status_required": true,
      "family_eligible": true,
      "docs_required": ["DD-214"]
    },
    "services": [
      "Disability compensation claims",
      "Pension claims",
      "Vocational rehabilitation assistance",
      "Education benefits",
      "Life insurance claims",
      "Death benefits",
      "Home loan guaranty assistance",
      "Health care navigation",
      "Transportation to VA appointments"
    ],
    "hours": "Monday-Friday (standard business hours)",
    "appointment_required": true,
    "cost": "Free",
    "coverage_area": "Statewide Minnesota (39 chapters)",
    "source_url": "https://davmn.org/contact-us/",
    "confidence": 0.95,
    "notes": "Toll-free: 888-317-2291. Serves entire Minnesota through chapter network. Transportation services available to VA medical appointments."
  },
  {
    "name": "American Legion Service Officer - Minnesota",
    "organization": "American Legion Department of Minnesota",
    "category": "benefits",
    "subcategory": "vso-services",
    "description": "Accredited American Legion Service Officers provide free, expert assistance with VA disability benefits applications and guidance through the VA claims process.",
    "phone": "612-467-3849",
    "website": "https://mnlegion.org/veteran-services/",
    "address": "VA Medical Center, Minneapolis, MN",
    "city": "Minneapolis",
    "state": "MN",
    "eligibility": {
      "veteran_status_required": true,
      "family_eligible": true,
      "docs_required": ["DD-214"]
    },
    "services": [
      "VA disability benefits applications",
      "Education benefits",
      "Employment resources",
      "Member benefits and discounts",
      "Minnesota G.I. Bill assistance",
      "Life insurance programs"
    ],
    "hours": "Monday-Friday (standard business hours)",
    "appointment_required": true,
    "cost": "Free",
    "coverage_area": "Statewide Minnesota",
    "source_url": "https://mnlegion.org/veteran-services/",
    "confidence": 0.90,
    "notes": "Department Service Officer: Jeremy Wolfsteller (jwolfsteller@mnlegion.org). Office located at VA Medical Center in Minneapolis."
  },
  {
    "name": "AMVETS - Minnesota State Office",
    "organization": "AMVETS (American Veterans Association)",
    "category": "benefits",
    "subcategory": "vso-services",
    "description": "AMVETS National Service Officers provide free assistance with VA claims for veterans, dependents, and survivors. Helps with disability compensation and other VA benefits.",
    "phone": "651-293-1212",
    "website": "https://mn-amvets.org/",
    "address": "State Veterans Service Building, 20 West 12th Street, Room 302, St. Paul, MN 55155",
    "city": "St. Paul",
    "state": "MN",
    "eligibility": {
      "veteran_status_required": true,
      "family_eligible": true,
      "docs_required": ["DD-214"]
    },
    "services": [
      "Disability compensation claims",
      "Claims assistance",
      "Benefits counseling",
      "Financial aid programs",
      "Scholarships for veterans and family members"
    ],
    "hours": "Monday-Friday (standard business hours)",
    "appointment_required": true,
    "cost": "Free",
    "coverage_area": "Statewide Minnesota",
    "source_url": "https://mn-amvets.org/",
    "confidence": 0.85,
    "notes": "Serves veterans, dependents, and survivors. Offers annual scholarships."
  },
  {
    "name": "St. Paul VA Regional Benefit Office",
    "organization": "U.S. Department of Veterans Affairs",
    "category": "benefits",
    "subcategory": "disability-claims",
    "description": "Federal VA office administering disability compensation, pensions, education, insurance, loan guaranty, and vocational rehabilitation benefits.",
    "phone": "800-827-1000",
    "website": "https://www.va.gov/st-paul-va-regional-benefit-office/",
    "address": "1 Federal Drive, Fort Snelling, St. Paul, MN 55111 (Main office temporarily closed, staff at Minneapolis VAMC)",
    "city": "St. Paul / Minneapolis",
    "state": "MN",
    "eligibility": {
      "veteran_status_required": true,
      "family_eligible": true,
      "docs_required": ["DD-214", "Birth certificate", "Marriage certificate"]
    },
    "services": [
      "Disability compensation claims",
      "Pension claims",
      "Education benefits (GI Bill)",
      "Life insurance programs",
      "Home loan guaranty",
      "Veteran Readiness and Employment (VR&E/Chapter 31)",
      "Direct deposit updates",
      "Claim status checks",
      "Outreach and community support"
    ],
    "hours": "Monday-Friday 8:00 AM - 4:30 PM (virtual VERA available)",
    "appointment_required": false,
    "cost": "Free",
    "coverage_area": "Minnesota, Iowa, Missouri, Kansas, Nebraska",
    "source_url": "https://www.va.gov/st-paul-va-regional-benefit-office/",
    "confidence": 0.95,
    "notes": "Main office temporarily closed; staff available at Minneapolis VAMC and via virtual VERA appointments. Call center: 612-725-2000 (weekdays 7 AM-7 PM)."
  },
  {
    "name": "Minnesota Department of Veterans Affairs - LinkVet",
    "organization": "Minnesota Department of Veterans Affairs",
    "category": "benefits",
    "subcategory": "state-benefits",
    "description": "State veterans service line providing support for Minnesota veterans and families seeking state and federal benefits. Seven-day-a-week support available.",
    "phone": "888-546-5838",
    "website": "https://mn.gov/mdva/",
    "address": "State Veterans Service Building, 20 West 12th Street, Room 206-C, St. Paul, MN 55155-2006",
    "city": "St. Paul",
    "state": "MN",
    "eligibility": {
      "veteran_status_required": true,
      "family_eligible": true,
      "docs_required": ["DD-214"]
    },
    "services": [
      "State and federal benefits navigation",
      "Veterans home care",
      "Healthcare coordination",
      "Education benefits assistance",
      "Special veterans benefits",
      "Burial assistance",
      "State cemetery access"
    ],
    "hours": "Seven days per week (24/7 support line)",
    "appointment_required": false,
    "cost": "Free",
    "coverage_area": "Statewide Minnesota",
    "source_url": "https://mn.gov/mdva/",
    "confidence": 0.90,
    "notes": "LinkVet is the primary support line. MDVA operates 8 state veterans homes and 4 state veterans cemeteries."
  },
  {
    "name": "MACV Vetlaw Program - VA Medical Center Clinic",
    "organization": "Minnesota Assistance Council for Veterans (MACV)",
    "category": "legal",
    "subcategory": "appeals",
    "description": "Free legal assistance program for veterans pursuing VA appeals and benefits claims. Provides representation for eligible veterans (homeless or at-risk, low-income).",
    "phone": "651-200-4750",
    "website": "https://www.mac-v.org/our-services/vetlaw/",
    "address": "1 Veterans Drive, Flag Atrium Balcony Room 2S 114, Minneapolis, MN 55417",
    "city": "Minneapolis",
    "state": "MN",
    "eligibility": {
      "veteran_status_required": true,
      "family_eligible": false,
      "docs_required": ["DD-214", "Proof of income", "Evidence of homelessness or at-risk status"]
    },
    "services": [
      "VA appeals representation",
      "Disability benefits claims assistance",
      "Housing and employment legal obstacles",
      "Court of Appeals for Veterans Claims representation",
      "Legal counseling"
    ],
    "hours": "Call for appointment availability",
    "appointment_required": true,
    "cost": "Free (for eligible veterans)",
    "coverage_area": "Statewide Minnesota",
    "source_url": "https://www.mac-v.org/our-services/vetlaw/",
    "confidence": 0.90,
    "notes": "Email: vetlaw@mac-v.org. Limited to homeless or at-risk veterans meeting low-income criteria. Representation at VA appeals and U.S. Court of Appeals for Veterans Claims."
  },
  {
    "name": "Minneapolis VA Medical Center - Benefits Assistance",
    "organization": "VA Minneapolis Health Care",
    "category": "benefits",
    "subcategory": "disability-claims",
    "description": "VA benefits counselors and outreach specialists available to help veterans understand eligibility, gather documents, and apply for benefits. Also houses VA Regional Office staff.",
    "phone": "612-725-2000",
    "website": "https://www.va.gov/minneapolis-health-care/contact-us/",
    "address": "1 Veterans Drive, Minneapolis, MN 55417",
    "city": "Minneapolis",
    "state": "MN",
    "eligibility": {
      "veteran_status_required": true,
      "family_eligible": true,
      "docs_required": ["DD-214", "Photo ID"]
    },
    "services": [
      "Benefits counseling",
      "Eligibility explanation",
      "Application assistance",
      "Document gathering support",
      "Claim status checks",
      "Direct deposit updates",
      "Outreach and community referrals",
      "VA Regional Office access"
    ],
    "hours": "Monday-Friday 7:00 AM - 7:00 PM (Call Center)",
    "appointment_required": false,
    "cost": "Free",
    "coverage_area": "Minneapolis metro area and statewide",
    "source_url": "https://www.va.gov/minneapolis-health-care/contact-us/",
    "confidence": 0.90,
    "notes": "Houses VA Regional Office staff during main office closure. VERA (Video Enabled Redesign Architecture) virtual appointments available. Vetlaw legal clinic located on-site."
  },
  {
    "name": "Milwaukee County Veterans Service Office",
    "organization": "Milwaukee County Department of Health and Human Services",
    "category": "benefits",
    "subcategory": "disability-claims",
    "description": "County veterans service office providing assistance with VA disability claims, education, grants, healthcare, burial, and survivors benefits",
    "phone": "414-266-1234",
    "website": "https://county.milwaukee.gov/EN/DHHS/Adults-Services/Veterans-Services",
    "address": "6401 W Greenfield Ave, West Allis, WI 53214",
    "city": "West Allis",
    "state": "WI",
    "eligibility": {
      "veteran_status_required": true,
      "family_eligible": true,
      "docs_required": ["DD-214"]
    },
    "services": [
      "VA disability claims assistance",
      "Education benefits",
      "Healthcare navigation",
      "Burial benefits",
      "Survivors benefits",
      "Local resource connection"
    ],
    "hours": "Monday-Friday 8:00 AM - 4:30 PM",
    "appointment_required": false,
    "cost": "Free",
    "coverage_area": "Milwaukee County",
    "source_url": "https://county.milwaukee.gov/EN/DHHS/Adults-Services/Veterans-Services",
    "confidence": 0.95,
    "notes": "Walk-ins welcome. Bus accessible (Route 18). Wheelchair accessible."
  },
  {
    "name": "DAV National Service Office - Milwaukee",
    "organization": "Disabled American Veterans",
    "category": "benefits",
    "subcategory": "disability-claims",
    "description": "Accredited representatives providing free professional assistance with VA disability claims and government benefits",
    "phone": "414-902-5736",
    "website": "https://dav-wi.org/",
    "address": "5400 West National Avenue, Room 162, Milwaukee, WI 53214",
    "city": "Milwaukee",
    "state": "WI",
    "eligibility": {
      "veteran_status_required": true,
      "family_eligible": true,
      "docs_required": ["DD-214"]
    },
    "services": [
      "VA disability claims",
      "Government benefits assistance",
      "Free transportation to VA medical appointments"
    ],
    "hours": "Monday, Tuesday, Thursday, Friday 8:00 AM - 11:30 AM, 12:30 PM - 3:30 PM; Closed Wednesday for training",
    "appointment_required": false,
    "cost": "Free",
    "coverage_area": "Milwaukee County, Wisconsin (serves ~12,000 veterans annually; mobile office for rural areas)",
    "source_url": "https://www.benefits.va.gov/Milwaukee/veterans-services-orgs.asp",
    "confidence": 0.95,
    "notes": "Accredited representatives. DAV helps approximately 3,500 veterans and families annually in Wisconsin. Fax: 414-902-9440"
  },
  {
    "name": "VFW Department Service Office - Milwaukee",
    "organization": "Veterans of Foreign Wars",
    "category": "benefits",
    "subcategory": "vso-services",
    "description": "Accredited service officers providing free assistance with VA benefits claims and research",
    "phone": "414-902-5748",
    "website": "https://vfwwi.org/di/vfw/v2/default.asp?pid=7317",
    "address": "5400 West National Avenue, Room 166, Milwaukee, WI 53214",
    "city": "Milwaukee",
    "state": "WI",
    "eligibility": {
      "veteran_status_required": true,
      "family_eligible": true,
      "docs_required": ["DD-214"]
    },
    "services": [
      "VA compensation claims",
      "VA pension claims",
      "Research and advice",
      "Original claims filing assistance"
    ],
    "hours": "Monday-Friday 8:00 AM - 4:00 PM",
    "appointment_required": false,
    "cost": "Free",
    "coverage_area": "Milwaukee County, Wisconsin",
    "source_url": "https://www.benefits.va.gov/Milwaukee/veterans-services-orgs.asp",
    "confidence": 0.90,
    "notes": "No cost to veterans or family members. Email: vfw.vbamiw@va.gov"
  },
  {
    "name": "American Legion Department Service Office - Milwaukee",
    "organization": "American Legion",
    "category": "benefits",
    "subcategory": "vso-services",
    "description": "Accredited service officers specializing in expert assistance with veterans benefits",
    "phone": "414-902-5722",
    "website": "https://wilegion.org/department-service-office",
    "address": "5400 West National Avenue, Room 164, Milwaukee, WI 53214",
    "city": "Milwaukee",
    "state": "WI",
    "eligibility": {
      "veteran_status_required": true,
      "family_eligible": true,
      "docs_required": ["DD-214"]
    },
    "services": [
      "VA benefits claims",
      "Expert assistance",
      "Veterans benefits counseling"
    ],
    "hours": "Monday-Friday 8:00 AM - 4:00 PM",
    "appointment_required": false,
    "cost": "Free",
    "coverage_area": "Milwaukee County, Wisconsin",
    "source_url": "https://www.benefits.va.gov/Milwaukee/veterans-services-orgs.asp",
    "confidence": 0.90,
    "notes": "Staff includes Johnny Rosario and Melissa Vargas. Free of charge service."
  },
  {
    "name": "WDVA Claims Assistance Office",
    "organization": "Wisconsin Department of Veterans Affairs",
    "category": "benefits",
    "subcategory": "disability-claims",
    "description": "VA-accredited representatives assisting with VA benefits claims submission and evidence gathering",
    "phone": "833-494-7256",
    "website": "https://dva.wi.gov/resources/claims-office/",
    "address": "5400 W. National Avenue, Room 157, Milwaukee, WI 53214",
    "city": "Milwaukee",
    "state": "WI",
    "eligibility": {
      "veteran_status_required": true,
      "family_eligible": false,
      "docs_required": ["DD-214"]
    },
    "services": [
      "VA benefits claims submission",
      "Evidence identification",
      "Claim approval support"
    ],
    "hours": "Monday-Friday 8:00 AM - 4:00 PM",
    "appointment_required": false,
    "cost": "Free",
    "coverage_area": "Wisconsin",
    "source_url": "https://dva.wi.gov/Pages/benefitsClaims/WDVAClaimsAssistance.aspx",
    "confidence": 0.92,
    "notes": "Walk-ins welcome. VA-accredited representative. Email: claims@dva.wi.gov"
  },
  {
    "name": "Milwaukee VA Regional Benefit Office",
    "organization": "Department of Veterans Affairs",
    "category": "benefits",
    "subcategory": "disability-claims",
    "description": "Federal VA office administering compensation, pension, and veteran readiness benefits",
    "phone": "800-827-1000",
    "website": "https://www.benefits.va.gov/milwaukee/",
    "address": "5400 West National Avenue, Milwaukee, WI 53214",
    "city": "Milwaukee",
    "state": "WI",
    "eligibility": {
      "veteran_status_required": true,
      "family_eligible": true,
      "docs_required": ["DD-214"]
    },
    "services": [
      "Disability compensation",
      "Pension benefits",
      "Veteran Readiness and Employment",
      "VA healthcare information",
      "Memorial benefits",
      "Outreach to homeless/at-risk veterans",
      "Eligibility counseling"
    ],
    "hours": "Monday-Friday 8:00 AM - 4:00 PM",
    "appointment_required": true,
    "cost": "Free",
    "coverage_area": "Wisconsin",
    "source_url": "https://www.va.gov/milwaukee-va-regional-benefit-office/",
    "confidence": 0.95,
    "notes": "Schedule appointments via Visitor Engagement Reporting Application (VERA). Virtual and in-person appointments available."
  },
  {
    "name": "Milwaukee Vet Center",
    "organization": "Department of Veterans Affairs",
    "category": "benefits",
    "subcategory": "pension",
    "description": "Readjustment counseling center for veterans providing mental health and counseling services",
    "phone": "414-434-1311",
    "website": "https://www.va.gov/milwaukee-vet-center/",
    "address": "7910 North 76th Street, Suite 100, Milwaukee, WI 53223",
    "city": "Milwaukee",
    "state": "WI",
    "eligibility": {
      "veteran_status_required": true,
      "family_eligible": true,
      "docs_required": []
    },
    "services": [
      "Individual counseling",
      "Group counseling",
      "Family counseling",
      "Bereavement counseling",
      "Military sexual trauma counseling",
      "Substance abuse assessment and referral",
      "VBA benefits assistance",
      "Medical screenings and referrals"
    ],
    "hours": "Call for hours. After-hours support: 1-877-927-8387",
    "appointment_required": false,
    "cost": "Free",
    "coverage_area": "Milwaukee County",
    "source_url": "https://www.va.gov/milwaukee-vet-center/",
    "confidence": 0.92,
    "notes": "No need for VA health enrollment or service-connected disability. No discharge character restrictions. Non-medical counseling center. Fax: 414-434-0128"
  }
]
