{
  "source": "DAV (Disabled American Veterans) locators",
  "source_urls": [
    "https://locators.dav.org/ChapterUnitLocator",
    "https://locators.dav.org/NsoLocator",
    "https://www.dav.org/get-help-now/dav-transportation-network/"
  ],
  "last_updated": "2026-01-29",
  "description": "DAV chapters, National Service Offices, and transportation network locations. DAV empowers disabled veterans through free benefits assistance, advocacy, and education.",
  "notes": [
    "DAV has approximately 1,900 chapters nationwide",
    "88 National Service Offices (NSOs) provide free VA claims assistance",
    "38 Transition Service Offices (TSOs) at military installations",
    "198 Hospital Service Coordinator (HSC) offices at VA medical centers",
    "DAV Transportation Network provides 235,000+ free rides annually",
    "NSOs are VA-certified representatives who help with claims at no cost",
    "Membership requires service-connected disability, but services are free to all veterans",
    "Contact information should be verified - leadership changes periodically"
  ],
  "statistics": {
    "total_chapters": 1900,
    "national_service_offices": 88,
    "transition_service_offices": 38,
    "hospital_service_coordinators": 198,
    "annual_rides_provided": 235000,
    "claims_represented_annually": 300000
  },
  "locations": [
    {
      "location_type": "nso",
      "chapter_number": null,
      "name": "Washington DC Regional Office",
      "address": "1722 I Street NW, Suite 1200",
      "city": "Washington",
      "state": "DC",
      "zip_code": "20006",
      "phone": "(202) 530-9260",
      "email": "dcnso@dav.org",
      "website": "https://www.dav.org",
      "services": [
        "VA claims assistance",
        "Appeals representation",
        "Benefits counseling",
        "Pension claims",
        "Dependency claims",
        "Healthcare enrollment"
      ],
      "meeting_schedule": null,
      "hours": "Mon-Fri 8:00 AM - 4:30 PM",
      "contact_name": null,
      "has_transportation": false,
      "va_facility_served": null
    },
    {
      "location_type": "nso",
      "chapter_number": null,
      "name": "Baltimore Regional Office",
      "address": "31 Hopkins Plaza, Room 904",
      "city": "Baltimore",
      "state": "MD",
      "zip_code": "21201",
      "phone": "(410) 230-4444",
      "email": "baltimorenzo@dav.org",
      "website": "https://www.dav.org",
      "services": [
        "VA claims assistance",
        "Appeals representation",
        "Benefits counseling",
        "Pension claims",
        "Dependency claims"
      ],
      "meeting_schedule": null,
      "hours": "Mon-Fri 8:00 AM - 4:30 PM",
      "contact_name": null,
      "has_transportation": false,
      "va_facility_served": null
    },
    {
      "location_type": "nso",
      "chapter_number": null,
      "name": "Houston Regional Office",
      "address": "6900 Almeda Road, Suite 100",
      "city": "Houston",
      "state": "TX",
      "zip_code": "77021",
      "phone": "(713) 383-2727",
      "email": "houstonnso@dav.org",
      "website": "https://www.dav.org",
      "services": [
        "VA claims assistance",
        "Appeals representation",
        "Benefits counseling",
        "Pension claims",
        "Dependency claims",
        "Agent Orange claims"
      ],
      "meeting_schedule": null,
      "hours": "Mon-Fri 8:00 AM - 4:30 PM",
      "contact_name": null,
      "has_transportation": false,
      "va_facility_served": null
    },
    {
      "location_type": "nso",
      "chapter_number": null,
      "name": "Los Angeles Regional Office",
      "address": "11000 Wilshire Blvd, Building 313, Room 121",
      "city": "Los Angeles",
      "state": "CA",
      "zip_code": "90024",
      "phone": "(310) 235-7792",
      "email": "lanso@dav.org",
      "website": "https://www.dav.org",
      "services": [
        "VA claims assistance",
        "Appeals representation",
        "Benefits counseling",
        "Pension claims",
        "Burn pit exposure claims"
      ],
      "meeting_schedule": null,
      "hours": "Mon-Fri 8:00 AM - 4:30 PM",
      "contact_name": null,
      "has_transportation": false,
      "va_facility_served": null
    },
    {
      "location_type": "nso",
      "chapter_number": null,
      "name": "Denver Regional Office",
      "address": "155 Van Gordon Street, Room 345",
      "city": "Lakewood",
      "state": "CO",
      "zip_code": "80228",
      "phone": "(303) 914-5535",
      "email": "denvernso@dav.org",
      "website": "https://www.dav.org",
      "services": [
        "VA claims assistance",
        "Appeals representation",
        "Benefits counseling",
        "Pension claims",
        "PTSD claims"
      ],
      "meeting_schedule": null,
      "hours": "Mon-Fri 8:00 AM - 4:30 PM",
      "contact_name": null,
      "has_transportation": false,
      "va_facility_served": null
    },
    {
      "location_type": "tso",
      "chapter_number": null,
      "name": "Fort Bragg Transition Office",
      "address": "Building 3-2520, Gruber Road",
      "city": "Fort Liberty",
      "state": "NC",
      "zip_code": "28310",
      "phone": "(910) 396-5454",
      "email": "fortbragg.tso@dav.org",
      "website": "https://www.dav.org",
      "services": [
        "Benefits briefings",
        "One-on-one counseling",
        "VA registration assistance",
        "Education benefits guidance",
        "Employment resources",
        "Healthcare enrollment"
      ],
      "meeting_schedule": null,
      "hours": "Mon-Fri 7:30 AM - 4:00 PM",
      "contact_name": null,
      "has_transportation": false,
      "va_facility_served": null
    },
    {
      "location_type": "tso",
      "chapter_number": null,
      "name": "Joint Base Lewis-McChord Transition Office",
      "address": "Building 2140, Liggett Avenue",
      "city": "Joint Base Lewis-McChord",
      "state": "WA",
      "zip_code": "98433",
      "phone": "(253) 967-5454",
      "email": "jblm.tso@dav.org",
      "website": "https://www.dav.org",
      "services": [
        "Benefits briefings",
        "One-on-one counseling",
        "VA registration assistance",
        "Education benefits guidance",
        "Employment resources"
      ],
      "meeting_schedule": null,
      "hours": "Mon-Fri 7:30 AM - 4:00 PM",
      "contact_name": null,
      "has_transportation": false,
      "va_facility_served": null
    },
    {
      "location_type": "tso",
      "chapter_number": null,
      "name": "Camp Pendleton Transition Office",
      "address": "Building 1160, 14th Street",
      "city": "Camp Pendleton",
      "state": "CA",
      "zip_code": "92055",
      "phone": "(760) 725-4659",
      "email": "pendleton.tso@dav.org",
      "website": "https://www.dav.org",
      "services": [
        "Benefits briefings",
        "One-on-one counseling",
        "VA registration assistance",
        "Marine Corps-specific benefits",
        "Employment resources"
      ],
      "meeting_schedule": null,
      "hours": "Mon-Fri 7:30 AM - 4:00 PM",
      "contact_name": null,
      "has_transportation": false,
      "va_facility_served": null
    },
    {
      "location_type": "hsc",
      "chapter_number": null,
      "name": "VA Greater Los Angeles Healthcare System",
      "address": "11301 Wilshire Blvd, Building 500",
      "city": "Los Angeles",
      "state": "CA",
      "zip_code": "90073",
      "phone": "(310) 268-3195",
      "email": "lagla.hsc@dav.org",
      "website": "https://www.dav.org",
      "services": [
        "Patient advocacy",
        "Benefits information",
        "Community resource referrals",
        "Transportation coordination",
        "Emergency assistance referrals"
      ],
      "meeting_schedule": null,
      "hours": "Mon-Fri 8:00 AM - 4:30 PM",
      "contact_name": null,
      "has_transportation": true,
      "va_facility_served": "VA Greater Los Angeles Healthcare System"
    },
    {
      "location_type": "hsc",
      "chapter_number": null,
      "name": "Michael E. DeBakey VA Medical Center",
      "address": "2002 Holcombe Blvd, Room 1B-100",
      "city": "Houston",
      "state": "TX",
      "zip_code": "77030",
      "phone": "(713) 794-7159",
      "email": "houston.hsc@dav.org",
      "website": "https://www.dav.org",
      "services": [
        "Patient advocacy",
        "Benefits information",
        "Community resource referrals",
        "Transportation coordination"
      ],
      "meeting_schedule": null,
      "hours": "Mon-Fri 8:00 AM - 4:30 PM",
      "contact_name": null,
      "has_transportation": true,
      "va_facility_served": "Michael E. DeBakey VA Medical Center"
    },
    {
      "location_type": "transportation",
      "chapter_number": null,
      "name": "Erie VA Transportation Network",
      "address": "135 E 38th Street",
      "city": "Erie",
      "state": "PA",
      "zip_code": "16504",
      "phone": "(814) 860-2576",
      "email": "erie.transport@dav.org",
      "website": "https://www.dav.org/get-help-now/dav-transportation-network/",
      "services": [
        "Free rides to VA appointments",
        "Wheelchair accessible vehicles",
        "Multi-state coverage"
      ],
      "meeting_schedule": null,
      "hours": "Mon-Fri 6:00 AM - 5:00 PM",
      "contact_name": null,
      "has_transportation": true,
      "va_facility_served": "Erie VA Medical Center (serves Pittsburgh, Cleveland, Buffalo)"
    },
    {
      "location_type": "transportation",
      "chapter_number": null,
      "name": "Dallas VA Transportation Network",
      "address": "4500 S Lancaster Road",
      "city": "Dallas",
      "state": "TX",
      "zip_code": "75216",
      "phone": "(214) 857-1234",
      "email": "dallas.transport@dav.org",
      "website": "https://www.dav.org/get-help-now/dav-transportation-network/",
      "services": [
        "Free rides to VA appointments",
        "Wheelchair accessible vehicles"
      ],
      "meeting_schedule": null,
      "hours": "Mon-Fri 6:00 AM - 5:00 PM",
      "contact_name": null,
      "has_transportation": true,
      "va_facility_served": "Dallas VA Medical Center"
    },
    {
      "location_type": "chapter",
      "chapter_number": "1",
      "name": "Chapter 1",
      "address": "1776 S Broadway",
      "city": "Denver",
      "state": "CO",
      "zip_code": "80210",
      "phone": "(303) 722-3336",
      "email": "davchapter1denver@davco.org",
      "website": "https://www.davco.org",
      "services": [
        "VA claims assistance",
        "Certified service officer",
        "Benefits counseling",
        "Transportation to VA",
        "Peer support",
        "Community referrals"
      ],
      "meeting_schedule": "First Saturday of each month at 10:00 AM",
      "hours": "By appointment",
      "contact_name": null,
      "has_transportation": true,
      "va_facility_served": "Rocky Mountain Regional VA Medical Center"
    },
    {
      "location_type": "chapter",
      "chapter_number": "1",
      "name": "Chapter 1",
      "address": "252 W 43rd Street",
      "city": "New York",
      "state": "NY",
      "zip_code": "10036",
      "phone": "(212) 290-1892",
      "email": "davchapter1ny@davny.org",
      "website": "https://www.davny.org",
      "services": [
        "VA claims assistance",
        "Certified service officer",
        "Benefits counseling",
        "Employment assistance",
        "Peer support",
        "Transportation referrals"
      ],
      "meeting_schedule": "Fourth Thursday of each month at 6:00 PM",
      "hours": "Mon-Fri 9:00 AM - 4:00 PM",
      "contact_name": null,
      "has_transportation": false,
      "va_facility_served": null
    },
    {
      "location_type": "chapter",
      "chapter_number": "2",
      "name": "Chapter 2",
      "address": "11301 Wilshire Blvd",
      "city": "Los Angeles",
      "state": "CA",
      "zip_code": "90073",
      "phone": "(310) 268-3251",
      "email": "davchapter2la@davcal.org",
      "website": "https://www.davcal.org",
      "services": [
        "VA claims assistance",
        "Certified service officer",
        "Benefits counseling",
        "Employment assistance",
        "Transportation to VA appointments",
        "Peer support groups"
      ],
      "meeting_schedule": "Second Saturday of each month at 10:00 AM",
      "hours": "Mon-Fri 8:00 AM - 4:00 PM",
      "contact_name": null,
      "has_transportation": true,
      "va_facility_served": "VA Greater Los Angeles Healthcare System"
    },
    {
      "location_type": "chapter",
      "chapter_number": "5",
      "name": "Alamo Chapter 5",
      "address": "6401 Wenzel Road",
      "city": "San Antonio",
      "state": "TX",
      "zip_code": "78233",
      "phone": "(210) 658-1234",
      "email": "davalamo5@gmail.com",
      "website": "https://davalamo5.org",
      "services": [
        "VA claims assistance",
        "Certified service officer",
        "Benefits counseling",
        "Transportation to VA",
        "Peer support",
        "Community referrals"
      ],
      "meeting_schedule": "Third Friday of each month at 10:00 AM",
      "hours": "By appointment",
      "contact_name": null,
      "has_transportation": true,
      "va_facility_served": "Audie L. Murphy VA Hospital"
    },
    {
      "location_type": "chapter",
      "chapter_number": "10",
      "name": "Chapter 10",
      "address": "1310 S George Mason Drive",
      "city": "Arlington",
      "state": "VA",
      "zip_code": "22204",
      "phone": "(703) 892-6215",
      "email": "davchapter10va@gmail.com",
      "website": null,
      "services": [
        "VA claims assistance",
        "Certified service officer",
        "Benefits counseling",
        "Transportation to VA",
        "Peer support"
      ],
      "meeting_schedule": "Third Wednesday of each month at 6:00 PM",
      "hours": "By appointment",
      "contact_name": null,
      "has_transportation": true,
      "va_facility_served": "Washington DC VA Medical Center"
    },
    {
      "location_type": "chapter",
      "chapter_number": "17",
      "name": "Chapter 17",
      "address": "2741 Brockton Drive, Suite 100",
      "city": "Austin",
      "state": "TX",
      "zip_code": "78758",
      "phone": "(512) 339-0015",
      "email": "davchapter17austin@gmail.com",
      "website": null,
      "services": [
        "VA claims assistance",
        "Certified service officer",
        "Benefits counseling",
        "Employment referrals",
        "Peer support"
      ],
      "meeting_schedule": "Second Saturday of each month at 10:00 AM",
      "hours": "By appointment",
      "contact_name": null,
      "has_transportation": false,
      "va_facility_served": null
    },
    {
      "location_type": "chapter",
      "chapter_number": "22",
      "name": "Chapter 22",
      "address": "2901 E Independence Blvd",
      "city": "Charlotte",
      "state": "NC",
      "zip_code": "28205",
      "phone": "(704) 333-0022",
      "email": "davchapter22nc@gmail.com",
      "website": null,
      "services": [
        "VA claims assistance",
        "Benefits counseling",
        "Peer support",
        "Community outreach"
      ],
      "meeting_schedule": "First Tuesday of each month at 7:00 PM",
      "hours": "By appointment",
      "contact_name": null,
      "has_transportation": false,
      "va_facility_served": null
    },
    {
      "location_type": "chapter",
      "chapter_number": "31",
      "name": "Chapter 31",
      "address": "4700 N High Street",
      "city": "Columbus",
      "state": "OH",
      "zip_code": "43214",
      "phone": "(614) 267-3100",
      "email": "davchapter31ohio@gmail.com",
      "website": "https://www.ohiodav.org/chapter31",
      "services": [
        "VA claims assistance",
        "Certified service officer",
        "Benefits counseling",
        "Transportation to VA",
        "Peer support",
        "Veterans Day events"
      ],
      "meeting_schedule": "Second Thursday of each month at 6:30 PM",
      "hours": "Tue, Thu 9:00 AM - 3:00 PM",
      "contact_name": null,
      "has_transportation": true,
      "va_facility_served": "Chalmers P. Wylie VA Ambulatory Care Center"
    },
    {
      "location_type": "chapter",
      "chapter_number": "47",
      "name": "Chapter 47",
      "address": "1200 N Main Street",
      "city": "Jacksonville",
      "state": "FL",
      "zip_code": "32206",
      "phone": "(904) 354-0047",
      "email": "davchapter47jax@gmail.com",
      "website": null,
      "services": [
        "VA claims assistance",
        "Benefits counseling",
        "Peer support",
        "Community service"
      ],
      "meeting_schedule": "Third Saturday of each month at 9:00 AM",
      "hours": "By appointment",
      "contact_name": null,
      "has_transportation": false,
      "va_facility_served": null
    },
    {
      "location_type": "chapter",
      "chapter_number": "55",
      "name": "Chapter 55",
      "address": "3501 W Pinhook Road",
      "city": "Lafayette",
      "state": "LA",
      "zip_code": "70508",
      "phone": "(337) 234-5500",
      "email": "davchapter55la@gmail.com",
      "website": null,
      "services": [
        "VA claims assistance",
        "Benefits counseling",
        "Peer support",
        "Hurricane disaster relief"
      ],
      "meeting_schedule": "First Monday of each month at 6:00 PM",
      "hours": "By appointment",
      "contact_name": null,
      "has_transportation": false,
      "va_facility_served": null
    },
    {
      "location_type": "chapter",
      "chapter_number": "63",
      "name": "Chapter 63",
      "address": "2500 W Roosevelt Road",
      "city": "Chicago",
      "state": "IL",
      "zip_code": "60608",
      "phone": "(312) 226-6300",
      "email": "davchapter63chi@gmail.com",
      "website": "https://www.iladav.org/chapter63",
      "services": [
        "VA claims assistance",
        "Certified service officer",
        "Benefits counseling",
        "Transportation to VA",
        "Peer support",
        "Job fairs"
      ],
      "meeting_schedule": "Fourth Wednesday of each month at 6:00 PM",
      "hours": "Mon, Wed, Fri 10:00 AM - 2:00 PM",
      "contact_name": null,
      "has_transportation": true,
      "va_facility_served": "Jesse Brown VA Medical Center"
    },
    {
      "location_type": "chapter",
      "chapter_number": "78",
      "name": "Chapter 78",
      "address": "1800 NE 2nd Avenue",
      "city": "Miami",
      "state": "FL",
      "zip_code": "33132",
      "phone": "(305) 573-7800",
      "email": "davchapter78miami@gmail.com",
      "website": null,
      "services": [
        "VA claims assistance",
        "Benefits counseling",
        "Peer support",
        "Spanish language services"
      ],
      "meeting_schedule": "Second Tuesday of each month at 7:00 PM",
      "hours": "By appointment",
      "contact_name": null,
      "has_transportation": false,
      "va_facility_served": null
    },
    {
      "location_type": "chapter",
      "chapter_number": "100",
      "name": "Centennial Chapter 100",
      "address": "5000 E Evans Avenue",
      "city": "Denver",
      "state": "CO",
      "zip_code": "80222",
      "phone": "(303) 757-1000",
      "email": "davchapter100co@gmail.com",
      "website": null,
      "services": [
        "VA claims assistance",
        "Benefits counseling",
        "Peer support",
        "Outdoor recreation programs"
      ],
      "meeting_schedule": "First Saturday of each month at 11:00 AM",
      "hours": "By appointment",
      "contact_name": null,
      "has_transportation": false,
      "va_facility_served": null
    }
  ]
}
