{
  "metadata": {
    "source": "Fisher House Foundation (https://www.fisherhouse.org/)",
    "last_updated": "2026-01",
    "description": "Fisher House Foundation provides free temporary housing for families of Veterans receiving treatment at VA medical centers and military installations. Each Fisher House is a home-away-from-home where families can stay together during a medical crisis.",
    "total_houses": 100,
    "notes": "Data compiled from Fisher House Foundation website and API. Approximately 100 houses are in operation across the US, Germany, and United Kingdom."
  },
  "locations": [
    {
      "id": "ak-jber",
      "name": "JBER Hospital I & II",
      "facility_name": "Joint Base Elmendorf-Richardson",
      "facility_type": "military",
      "address": "4943 Zeamer Avenue",
      "city": "Elmendorf AFB",
      "state": "AK",
      "zip": "99506",
      "phone": "(907) 222-1673",
      "email": "theresa.nedrow.2@us.af.mil",
      "manager": "Theresa Nedrow",
      "latitude": 61.2328945,
      "longitude": -149.7473398,
      "houses_count": 2,
      "slug": "alaska-jber-hospital-i-ii"
    },
    {
      "id": "az-tucson",
      "name": "Southern Arizona VA Health Care System",
      "facility_name": "Southern Arizona VA Health Care System",
      "facility_type": "va",
      "address": "3601 S. 6th Ave. (9-135FH)",
      "city": "Tucson",
      "state": "AZ",
      "zip": "85723",
      "phone": "(520) 838-3680",
      "email": "michael.ramsey2@va.gov",
      "manager": "Mike Ramsey",
      "latitude": 32.1950168,
      "longitude": -110.9665336,
      "houses_count": 1,
      "slug": "arizona-southern-arizona-va-health-care-system"
    },
    {
      "id": "ar-little-rock",
      "name": "Central Arkansas Veterans Health Care System",
      "facility_name": "John L. McClellan Memorial Veterans' Hospital",
      "facility_type": "va",
      "address": "4300 West Seventh Street",
      "city": "Little Rock",
      "state": "AR",
      "zip": "72205",
      "phone": "(501) 274-6610",
      "email": "john.swayze@va.gov",
      "manager": "John Swayze",
      "latitude": 34.746427,
      "longitude": -92.3204701,
      "houses_count": 1,
      "slug": "central-arkansas-veterans-health-care-system-little-rock-ar"
    },
    {
      "id": "ca-travis-afb",
      "name": "David Grant USAF Medical Center I & II",
      "facility_name": "David Grant USAF Medical Center",
      "facility_type": "military",
      "address": "101 Bodin Circle",
      "city": "Travis AFB",
      "state": "CA",
      "zip": "94535",
      "phone": "(707) 423-7550",
      "email": null,
      "manager": null,
      "latitude": 38.2725056,
      "longitude": -121.9478156,
      "houses_count": 2,
      "slug": "california-david-grant-usaf-medical-center-travis-afb-i-ii"
    },
    {
      "id": "ca-san-diego",
      "name": "Naval Medical Center San Diego I & II",
      "facility_name": "Naval Medical Center San Diego",
      "facility_type": "military",
      "address": "34800 Bob Wilson Dr., Bldg 46",
      "city": "San Diego",
      "state": "CA",
      "zip": "92134",
      "phone": "(619) 532-9055",
      "email": "tiana.n.babcock.naf@us.navy.mil",
      "manager": "Tiana Babcock",
      "latitude": 32.8681887,
      "longitude": -117.1423508,
      "houses_count": 2,
      "slug": "california-naval-medical-center-san-diego-i-ii"
    },
    {
      "id": "ca-palo-alto",
      "name": "VA Palo Alto Health Care System I & II",
      "facility_name": "VA Palo Alto Health Care System",
      "facility_type": "va",
      "address": "3801 Miranda Avenue",
      "city": "Palo Alto",
      "state": "CA",
      "zip": "94304",
      "phone": "(650) 493-5000",
      "email": null,
      "manager": null,
      "latitude": 37.401436,
      "longitude": -122.1430195,
      "houses_count": 2,
      "slug": "california-va-palo-alto-health-care-system-i-ii"
    },
    {
      "id": "ca-los-angeles",
      "name": "VA Greater Los Angeles Healthcare System",
      "facility_name": "VA Greater Los Angeles Healthcare System",
      "facility_type": "va",
      "address": "11301 Wilshire Boulevard",
      "city": "Los Angeles",
      "state": "CA",
      "zip": "90073",
      "phone": "(310) 268-3838",
      "email": null,
      "manager": null,
      "latitude": 34.0541907,
      "longitude": -118.4622927,
      "houses_count": 1,
      "slug": "california-va-greater-los-angeles-healthcare-system"
    },
    {
      "id": "ca-long-beach",
      "name": "VA Long Beach Healthcare System",
      "facility_name": "VA Long Beach Healthcare System",
      "facility_type": "va",
      "address": "5901 East 7th Street",
      "city": "Long Beach",
      "state": "CA",
      "zip": "90822",
      "phone": "(562) 826-8000",
      "email": null,
      "manager": null,
      "latitude": 33.7810903,
      "longitude": -118.1102287,
      "houses_count": 1,
      "slug": "california-va-long-beach-healthcare-system"
    },
    {
      "id": "ca-camp-pendleton",
      "name": "Naval Hospital Camp Pendleton",
      "facility_name": "Naval Hospital Camp Pendleton",
      "facility_type": "military",
      "address": "200 Mercy Circle",
      "city": "Camp Pendleton",
      "state": "CA",
      "zip": "92055",
      "phone": "(760) 725-3111",
      "email": null,
      "manager": null,
      "latitude": 33.296437,
      "longitude": -117.3208385,
      "houses_count": 1,
      "slug": "california-naval-hospital-camp-pendleton"
    },
    {
      "id": "co-aurora",
      "name": "VA Eastern Colorado Health Care System",
      "facility_name": "Rocky Mountain Regional VA Fisher House",
      "facility_type": "va",
      "address": "1700 N. Wheeling St.",
      "city": "Aurora",
      "state": "CO",
      "zip": "80045",
      "phone": "(720) 723-7683",
      "email": "VHAECHFisherHouse@va.gov",
      "manager": "Khristie Barker",
      "latitude": 39.7390827,
      "longitude": -104.838091,
      "houses_count": 1,
      "slug": "colorado-va-eastern-colorado-health-care-system"
    },
    {
      "id": "ct-west-haven",
      "name": "VA Connecticut Healthcare System",
      "facility_name": "VA Connecticut Healthcare System",
      "facility_type": "va",
      "address": "950 Campbell Avenue, Mail Code 135",
      "city": "West Haven",
      "state": "CT",
      "zip": "06516",
      "phone": "(203) 937-3438",
      "email": "CONFisherHouse@va.gov",
      "manager": "Mark Walker (Acting)",
      "latitude": 41.2844004,
      "longitude": -72.9576103,
      "houses_count": 1,
      "slug": "connecticut-va-connecticut-healthcare-system"
    },
    {
      "id": "de-dover-afb",
      "name": "Fisher House for Families of the Fallen",
      "facility_name": "Dover Air Force Base",
      "facility_type": "military",
      "address": "116 Purple Heart Dr.",
      "city": "Dover AFB",
      "state": "DE",
      "zip": "19902",
      "phone": "(302) 363-2523",
      "email": "jonathan.hicks.9@us.af.mil",
      "manager": "TSgt Jonathan Hicks",
      "latitude": 39.1183332,
      "longitude": -75.4688824,
      "houses_count": 1,
      "slug": "delaware-fisher-house-for-families-of-the-fallen"
    },
    {
      "id": "dc-washington",
      "name": "Washington DC VA Medical Center",
      "facility_name": "Washington DC VA Medical Center",
      "facility_type": "va",
      "address": "50 Irving St. NW",
      "city": "Washington",
      "state": "DC",
      "zip": "20422",
      "phone": "(202) 745-2482",
      "email": "jami.henderson@va.gov",
      "manager": "Jami Henderson",
      "latitude": 38.9293172,
      "longitude": -77.0107782,
      "houses_count": 1,
      "slug": "district-of-columbia-va-medical-center"
    },
    {
      "id": "fl-bay-pines",
      "name": "Bay Pines VA Healthcare System I & II",
      "facility_name": "Bay Pines VA Healthcare System",
      "facility_type": "va",
      "address": "10000 Bay Pines Boulevard",
      "city": "St. Petersburg",
      "state": "FL",
      "zip": "33708",
      "phone": "(727) 319-1350",
      "email": "Shentrela.diggins@va.gov",
      "manager": "Shentrela Diggins",
      "latitude": 27.8133711,
      "longitude": -82.7769734,
      "houses_count": 2,
      "slug": "florida-bay-pines-va-healthcare-system"
    },
    {
      "id": "fl-eglin-afb",
      "name": "Eglin Air Force Base Hospital",
      "facility_name": "96th Medical Group",
      "facility_type": "military",
      "address": "350 Boatner Rd.",
      "city": "Eglin AFB",
      "state": "FL",
      "zip": "32542",
      "phone": "(850) 883-2865",
      "email": "robert.campbell.67@us.af.mil",
      "manager": "Robert Campbell",
      "latitude": 30.4613652,
      "longitude": -86.5531358,
      "houses_count": 1,
      "slug": "florida-eglin-air-force-hospital"
    },
    {
      "id": "fl-gainesville",
      "name": "North Florida/South Georgia Veterans Health System",
      "facility_name": "North Florida/South Georgia Veterans Health System",
      "facility_type": "va",
      "address": "1601 SW Archer Road",
      "city": "Gainesville",
      "state": "FL",
      "zip": "32608",
      "phone": "(352) 548-6492",
      "email": "vhanflgvfisherhouse2@va.gov",
      "manager": "Kimo Ortiz",
      "latitude": 29.6372136,
      "longitude": -82.346842,
      "houses_count": 1,
      "slug": "florida-north-florida-south-georgia-veterans-health-system"
    },
    {
      "id": "fl-miami",
      "name": "Miami VA Healthcare System",
      "facility_name": "Miami VA Healthcare System",
      "facility_type": "va",
      "address": "1201 NW 16th St.",
      "city": "Miami",
      "state": "FL",
      "zip": "33125",
      "phone": "(305) 575-7260",
      "email": "Lerrichiad.Sanchez@va.gov",
      "manager": "Richie Sanchez",
      "latitude": 25.7916243,
      "longitude": -80.2165803,
      "houses_count": 1,
      "slug": "florida-miami-va-healthcare-system"
    },
    {
      "id": "fl-orlando",
      "name": "Orlando VA Medical Center",
      "facility_name": "Orlando VA Medical Center",
      "facility_type": "va",
      "address": "13800 Veterans Way",
      "city": "Orlando",
      "state": "FL",
      "zip": "32827",
      "phone": "(407) 631-9800",
      "email": "george.denby@va.gov",
      "manager": "George Denby",
      "latitude": 28.36525,
      "longitude": -81.2749461,
      "houses_count": 1,
      "slug": "florida-orlando-va-medical-center"
    },
    {
      "id": "fl-tampa",
      "name": "James A. Haley Veterans' Hospital I & II",
      "facility_name": "James A. Haley Veterans' Hospital",
      "facility_type": "va",
      "address": "13000 Bruce B. Downs Boulevard",
      "city": "Tampa",
      "state": "FL",
      "zip": "33612",
      "phone": "(813) 910-3000",
      "email": "Sean.kelly2@va.gov",
      "manager": "Sean Kelly",
      "latitude": 28.0654077,
      "longitude": -82.4265111,
      "houses_count": 2,
      "slug": "florida-james-a-haley-veterans-hospital-i-ii"
    },
    {
      "id": "fl-west-palm-beach",
      "name": "Thomas H. Corey VA Medical Center",
      "facility_name": "Thomas H. Corey VA Medical Center",
      "facility_type": "va",
      "address": "7305 North Military Trail, RT 122",
      "city": "West Palm Beach",
      "state": "FL",
      "zip": "33410",
      "phone": "(561) 422-5554",
      "email": "shelley.prickett2@va.gov",
      "manager": "Shelley Prickett",
      "latitude": 26.7851561,
      "longitude": -80.1115712,
      "houses_count": 1,
      "slug": "florida-west-palm-beach-va-medical-center"
    },
    {
      "id": "ga-augusta",
      "name": "Charlie Norwood VA Medical Center",
      "facility_name": "Charlie Norwood VA Medical Center",
      "facility_type": "va",
      "address": "One Freedom Way",
      "city": "Augusta",
      "state": "GA",
      "zip": "30904",
      "phone": "(706) 729-5773",
      "email": "Courtney.deese@va.gov",
      "manager": "Courtney Deese",
      "latitude": 33.4721607,
      "longitude": -82.0205364,
      "houses_count": 1,
      "slug": "georgia-charlie-norwood-va-medical-center"
    },
    {
      "id": "ga-fort-gordon",
      "name": "Dwight David Eisenhower Army Medical Center",
      "facility_name": "Dwight David Eisenhower Army Medical Center",
      "facility_type": "military",
      "address": "300 E. Hospital Road",
      "city": "Fort Gordon",
      "state": "GA",
      "zip": "30905",
      "phone": "(706) 787-2422",
      "email": null,
      "manager": null,
      "latitude": 33.4229,
      "longitude": -82.1485,
      "houses_count": 1,
      "slug": "georgia-dwight-david-eisenhower-army-medical-center"
    },
    {
      "id": "de-landstuhl",
      "name": "Landstuhl Regional Medical Center I & II",
      "facility_name": "Landstuhl Regional Medical Center",
      "facility_type": "military",
      "address": "CMR 402",
      "city": "Landstuhl",
      "state": null,
      "zip": "APO AE 09180",
      "country": "DE",
      "phone": "+49 (0) 6371-9464-5840",
      "email": null,
      "manager": null,
      "latitude": 49.4074,
      "longitude": 7.5706,
      "houses_count": 2,
      "slug": "germany-landstuhl-regional-medical-center-i-ii-army"
    },
    {
      "id": "hi-honolulu",
      "name": "Tripler Army Medical Center I & II",
      "facility_name": "Tripler Army Medical Center",
      "facility_type": "military",
      "address": "317 Krukowski Road",
      "city": "Honolulu",
      "state": "HI",
      "zip": "96819",
      "phone": "(808) 433-1291 ext. 212",
      "email": "kevin.v.valera.naf@health.mil",
      "manager": "Kevin Valera",
      "latitude": 21.3591,
      "longitude": -157.8756,
      "houses_count": 2,
      "slug": "hawaii-tripler-army-medical-center-i-ii"
    },
    {
      "id": "il-hines",
      "name": "Edward Hines Jr. VA Hospital",
      "facility_name": "Edward Hines Jr. VA Hospital",
      "facility_type": "va",
      "address": "5000 S. 5th Avenue",
      "city": "Hines",
      "state": "IL",
      "zip": "60141",
      "phone": "(708) 202-8387",
      "email": null,
      "manager": null,
      "latitude": 41.8562,
      "longitude": -87.8383,
      "houses_count": 1,
      "slug": "illinois-edward-hines-jr-va-hospital"
    },
    {
      "id": "il-north-chicago",
      "name": "Capt. James A. Lovell Federal Health Care Center",
      "facility_name": "Capt. James A. Lovell Federal Health Care Center",
      "facility_type": "va",
      "address": "3200 Meridian Ave.",
      "city": "North Chicago",
      "state": "IL",
      "zip": "60088",
      "phone": "(224) 610-7401",
      "email": "kimberly.skorupa@va.gov",
      "manager": "Kim Skorupa",
      "latitude": 42.3076709,
      "longitude": -87.8622734,
      "houses_count": 1,
      "slug": "illinois-capt-james-a-lovell-federal-health-care-center-chicago"
    },
    {
      "id": "ky-fort-campbell",
      "name": "Blanchfield Army Community Hospital",
      "facility_name": "Blanchfield Army Community Hospital",
      "facility_type": "military",
      "address": "650 Joel Drive",
      "city": "Fort Campbell",
      "state": "KY",
      "zip": "42223",
      "phone": "(270) 798-8123",
      "email": null,
      "manager": null,
      "latitude": 36.6521,
      "longitude": -87.4633,
      "houses_count": 1,
      "slug": "kentucky-blanchfield-army-community-hospital"
    },
    {
      "id": "ky-lexington",
      "name": "Lexington VA Healthcare System",
      "facility_name": "Lexington VA Healthcare System",
      "facility_type": "va",
      "address": "2250 Leestown Rd",
      "city": "Lexington",
      "state": "KY",
      "zip": "40511",
      "phone": "(859) 281-3825",
      "email": "michael.neville@va.gov",
      "manager": "Michael Neville",
      "latitude": 38.0739869,
      "longitude": -84.5392149,
      "houses_count": 1,
      "slug": "kentucky-lexington-va-healthcare-system"
    },
    {
      "id": "la-new-orleans",
      "name": "Southeast Louisiana Veterans Health Care System",
      "facility_name": "Southeast Louisiana Veterans Health Care System",
      "facility_type": "va",
      "address": "2400 Canal St.",
      "city": "New Orleans",
      "state": "LA",
      "zip": "70119",
      "phone": "(504) 507-6020",
      "email": "debra.ceaser-winbush@va.gov",
      "manager": "Debra Ceaser-Winbush",
      "latitude": 29.9619299,
      "longitude": -90.0847846,
      "houses_count": 1,
      "slug": "louisiana-southeast-veterans-health-care-system"
    },
    {
      "id": "me-togus",
      "name": "VA Maine Healthcare System",
      "facility_name": "VA Maine Healthcare System",
      "facility_type": "va",
      "address": "1 VA Center",
      "city": "Augusta",
      "state": "ME",
      "zip": "04330",
      "phone": "(207) 623-8411",
      "email": null,
      "manager": null,
      "latitude": 44.3107,
      "longitude": -69.7153,
      "houses_count": 1,
      "slug": "maine-va-maine-healthcare-system"
    },
    {
      "id": "md-bethesda",
      "name": "NSA Bethesda - Walter Reed I, II, III, IV, V",
      "facility_name": "Walter Reed National Military Medical Center",
      "facility_type": "military",
      "address": "24 Stokes Road",
      "city": "Bethesda",
      "state": "MD",
      "zip": "20814",
      "phone": "(301) 857-9486",
      "email": "tyler.davis1.naf@us.navy.mil",
      "manager": "Tyler Davis",
      "latitude": 39.0016,
      "longitude": -77.0942,
      "houses_count": 5,
      "slug": "maryland-nsa-bethesda-home-of-walter-reed-national-military-medical-center-i-ii-iii-iv-v"
    },
    {
      "id": "md-forest-glen",
      "name": "Walter Reed at Forest Glen Army Annex",
      "facility_name": "Walter Reed Forest Glen Annex",
      "facility_type": "military",
      "address": "2460 Linden Lane",
      "city": "Silver Spring",
      "state": "MD",
      "zip": "20910",
      "phone": "(301) 319-8700",
      "email": null,
      "manager": null,
      "latitude": 39.0192,
      "longitude": -77.0518,
      "houses_count": 2,
      "slug": "maryland-walter-reed-at-forest-glen-army-annex"
    },
    {
      "id": "md-andrews-afb",
      "name": "Malcolm Grow Medical Clinics & Surgery Center",
      "facility_name": "Malcolm Grow Medical Clinics & Surgery Center",
      "facility_type": "military",
      "address": "1076 W Perimeter Road",
      "city": "Joint Base Andrews",
      "state": "MD",
      "zip": "20762",
      "phone": "(301) 981-2273",
      "email": null,
      "manager": null,
      "latitude": 38.8126,
      "longitude": -76.8683,
      "houses_count": 1,
      "slug": "maryland-malcolm-grow-medical-clinics-surgery-center"
    },
    {
      "id": "ma-boston",
      "name": "VA Boston Healthcare System",
      "facility_name": "VA Boston Healthcare System",
      "facility_type": "va",
      "address": "1400 VFW Parkway",
      "city": "West Roxbury",
      "state": "MA",
      "zip": "02132",
      "phone": "(857) 203-4000",
      "email": "bostonfisherhouse@va.gov",
      "manager": "Carol Leger (Acting)",
      "latitude": 42.2882,
      "longitude": -71.1569,
      "houses_count": 1,
      "slug": "massachusetts-va-boston-healthcare-system"
    },
    {
      "id": "mi-ann-arbor",
      "name": "VA Ann Arbor Healthcare System",
      "facility_name": "VA Ann Arbor Healthcare System",
      "facility_type": "va",
      "address": "2215 Fuller Road",
      "city": "Ann Arbor",
      "state": "MI",
      "zip": "48105",
      "phone": "(734) 769-7100",
      "email": null,
      "manager": null,
      "latitude": 42.2903,
      "longitude": -83.7108,
      "houses_count": 1,
      "slug": "michigan-va-ann-arbor-healthcare-system"
    },
    {
      "id": "mi-detroit",
      "name": "John D. Dingell VA Medical Center",
      "facility_name": "John D. Dingell VA Medical Center",
      "facility_type": "va",
      "address": "4646 John R Street",
      "city": "Detroit",
      "state": "MI",
      "zip": "48201",
      "phone": "(313) 349-7300",
      "email": "VHADETFisherHouse2@va.gov",
      "manager": "Deidre Roy",
      "latitude": 42.3557104,
      "longitude": -83.0592025,
      "houses_count": 1,
      "slug": "michigan-john-d-dingell-va-medical-center"
    },
    {
      "id": "mn-minneapolis",
      "name": "Minneapolis VA Health Care System I & II",
      "facility_name": "Minneapolis VA Health Care System",
      "facility_type": "va",
      "address": "5045 East 54th St",
      "city": "Minneapolis",
      "state": "MN",
      "zip": "55417",
      "phone": "(612) 467-5602",
      "email": "Kimberly.Bihm@va.gov",
      "manager": "Kimberly Bihm",
      "latitude": 44.9045,
      "longitude": -93.2236,
      "houses_count": 2,
      "slug": "minnesota-minneapolis-va-health-care-system-i-ii"
    },
    {
      "id": "ms-keesler-afb",
      "name": "Keesler Medical Center I & II",
      "facility_name": "Keesler Medical Center",
      "facility_type": "military",
      "address": "301 Fisher Street",
      "city": "Keesler AFB",
      "state": "MS",
      "zip": "39534",
      "phone": "(228) 376-0385",
      "email": null,
      "manager": null,
      "latitude": 30.4111,
      "longitude": -88.9247,
      "houses_count": 2,
      "slug": "mississippi-keesler-medical-center-i-ii"
    },
    {
      "id": "mo-columbia",
      "name": "Harry S. Truman Memorial Veterans' Hospital",
      "facility_name": "Harry S. Truman Memorial Veterans' Hospital",
      "facility_type": "va",
      "address": "800 Hospital Drive",
      "city": "Columbia",
      "state": "MO",
      "zip": "65201",
      "phone": "(573) 814-6000 ext. 55462",
      "email": "terry.woodcock@va.gov",
      "manager": "Terry Woodcock",
      "latitude": 38.9366976,
      "longitude": -92.3289489,
      "houses_count": 1,
      "slug": "missouri-harry-s-truman-va-hospital"
    },
    {
      "id": "mo-kansas-city",
      "name": "Kansas City VA Medical Center",
      "facility_name": "Kansas City VA Medical Center",
      "facility_type": "va",
      "address": "4801 E. Linwood Blvd.",
      "city": "Kansas City",
      "state": "MO",
      "zip": "64128",
      "phone": "(816) 701-3232",
      "email": "KCFisherHouse@va.gov",
      "manager": "Deborah Graham McCook (Acting)",
      "latitude": 39.0639957,
      "longitude": -94.526509,
      "houses_count": 1,
      "slug": "missouri-kansas-city-va-medical-center"
    },
    {
      "id": "mo-st-louis",
      "name": "VA St. Louis Health Care System",
      "facility_name": "VA St. Louis Health Care System",
      "facility_type": "va",
      "address": "1 Jefferson Barracks Drive",
      "city": "St. Louis",
      "state": "MO",
      "zip": "63125",
      "phone": "(314) 652-4100",
      "email": null,
      "manager": null,
      "latitude": 38.4932,
      "longitude": -90.2881,
      "houses_count": 1,
      "slug": "missouri-va-st-louis-health-care-system"
    },
    {
      "id": "ne-omaha",
      "name": "VA Nebraska-Western Iowa Health Care System",
      "facility_name": "VA Nebraska-Western Iowa Health Care System",
      "facility_type": "va",
      "address": "4101 Woolworth Ave",
      "city": "Omaha",
      "state": "NE",
      "zip": "68105",
      "phone": "(402) 995-4000",
      "email": null,
      "manager": null,
      "latitude": 41.2373,
      "longitude": -95.9672,
      "houses_count": 1,
      "slug": "nebraska-va-nebraska-western-iowa-health-care-system"
    },
    {
      "id": "nv-las-vegas",
      "name": "VA Southern Nevada Healthcare System",
      "facility_name": "VA Southern Nevada Healthcare System",
      "facility_type": "va",
      "address": "6900 N. Pecos Rd.",
      "city": "North Las Vegas",
      "state": "NV",
      "zip": "89086",
      "phone": "(702) 224-6789",
      "email": "Stephanie.Wheeler4@va.gov",
      "manager": "Stephanie Jo Wheeler",
      "latitude": 36.2568,
      "longitude": -115.1151,
      "houses_count": 1,
      "slug": "nevada-va-southern-nevada-healthcare-system-las-vegas"
    },
    {
      "id": "nm-albuquerque",
      "name": "New Mexico VA Health Care System",
      "facility_name": "New Mexico VA Health Care System",
      "facility_type": "va",
      "address": "1501 San Pedro Dr SE",
      "city": "Albuquerque",
      "state": "NM",
      "zip": "87108",
      "phone": "(505) 265-1711",
      "email": null,
      "manager": null,
      "latitude": 35.0655,
      "longitude": -106.5921,
      "houses_count": 1,
      "slug": "new-mexico-new-mexico-va-health-care-system"
    },
    {
      "id": "ny-albany",
      "name": "Stratton VA Medical Center",
      "facility_name": "Stratton VA Medical Center",
      "facility_type": "va",
      "address": "113 Holland Avenue",
      "city": "Albany",
      "state": "NY",
      "zip": "12208",
      "phone": "(518) 626-6919",
      "email": "michael.horning@va.gov",
      "manager": "Michael Horning",
      "latitude": 42.6512163,
      "longitude": -73.7719718,
      "houses_count": 1,
      "slug": "new-york-stratton-va-medical-center"
    },
    {
      "id": "ny-bronx",
      "name": "James J. Peters VA Medical Center I & II",
      "facility_name": "James J. Peters VA Medical Center",
      "facility_type": "va",
      "address": "130 West Kingsbridge Road",
      "city": "Bronx",
      "state": "NY",
      "zip": "10468",
      "phone": "(718) 584-9000 ext. 2037",
      "email": "michael.vahoviak@va.gov",
      "manager": "Michael Vahoviak",
      "latitude": 40.8674032,
      "longitude": -73.9064046,
      "houses_count": 2,
      "slug": "new-york-james-j-peters-va-medical-center-bronx-i-ii"
    },
    {
      "id": "nc-camp-lejeune",
      "name": "Naval Hospital Camp Lejeune",
      "facility_name": "Naval Hospital Camp Lejeune",
      "facility_type": "military",
      "address": "4 Recovery Way",
      "city": "Camp Lejeune",
      "state": "NC",
      "zip": "28547",
      "phone": "(910) 450-3884",
      "email": "sanda.heger@usmc.mil",
      "manager": "Sanda Heger",
      "latitude": 34.7232202,
      "longitude": -77.3640662,
      "houses_count": 1,
      "slug": "north-carolina-naval-hospital-camp-lejeune"
    },
    {
      "id": "nc-fort-bragg",
      "name": "Womack Army Medical Center",
      "facility_name": "Womack Army Medical Center",
      "facility_type": "military",
      "address": "3120 Loop Rd.",
      "city": "Fort Bragg",
      "state": "NC",
      "zip": "28307",
      "phone": "(910) 849-3466",
      "email": "john.e.miller306.naf@health.mil",
      "manager": "John Miller",
      "latitude": 35.1457838,
      "longitude": -79.0021501,
      "houses_count": 1,
      "slug": "north-carolina-womack-army-medical-center"
    },
    {
      "id": "oh-cincinnati",
      "name": "Cincinnati VA Medical Center",
      "facility_name": "Cincinnati VA Medical Center",
      "facility_type": "va",
      "address": "3200 Vine Street",
      "city": "Cincinnati",
      "state": "OH",
      "zip": "45220",
      "phone": "(513) 475-6332",
      "email": "nicole.comer4@va.gov",
      "manager": "Nicole Comer (Acting)",
      "latitude": 39.139837,
      "longitude": -84.5088721,
      "houses_count": 1,
      "slug": "ohio-cincinnati-va-medical-center"
    },
    {
      "id": "oh-cleveland",
      "name": "Louis Stokes Cleveland VA Medical Center I & II",
      "facility_name": "Louis Stokes Cleveland VA Medical Center",
      "facility_type": "va",
      "address": "10521 Lee Ave.",
      "city": "Cleveland",
      "state": "OH",
      "zip": "44106",
      "phone": "(216) 707-4807",
      "email": "wesley.freeman@va.gov",
      "manager": "Wesley Freeman",
      "latitude": 41.5188056,
      "longitude": -81.6145965,
      "houses_count": 2,
      "slug": "ohio-louis-stokes-cleveland-va-medical-center-i-ii"
    },
    {
      "id": "oh-dayton",
      "name": "Dayton VA Medical Center",
      "facility_name": "Dayton VA Medical Center",
      "facility_type": "va",
      "address": "4100 W Third, BLDG 425",
      "city": "Dayton",
      "state": "OH",
      "zip": "45428",
      "phone": "(937) 268-6511 ext. 2887",
      "email": "Betsey.Striebel@va.gov",
      "manager": "Betsey Striebel",
      "latitude": 39.7427433,
      "longitude": -84.2617911,
      "houses_count": 1,
      "slug": "ohio-dayton-va-medical-center"
    },
    {
      "id": "oh-wright-patterson",
      "name": "Wright-Patterson Medical Center I & II",
      "facility_name": "Wright-Patterson Medical Center",
      "facility_type": "military",
      "address": "415 Schlatter Drive",
      "city": "Wright-Patterson AFB",
      "state": "OH",
      "zip": "45433",
      "phone": "(937) 257-0855",
      "email": "isfandiyor.nishanov@us.af.mil",
      "manager": "Isfandiyor Nishanov",
      "latitude": 39.8039671,
      "longitude": -84.0378564,
      "houses_count": 2,
      "slug": "ohio-wright-patterson-medical-center-i-ii"
    },
    {
      "id": "or-portland",
      "name": "VA Portland Health Care System",
      "facility_name": "VA Portland Health Care System",
      "facility_type": "va",
      "address": "1601 E. Fourth Plain Blvd.",
      "city": "Vancouver",
      "state": "WA",
      "zip": "98661",
      "phone": "(360) 567-4647",
      "email": "james.dorce@va.gov",
      "manager": "James Dorce",
      "latitude": 45.6366138,
      "longitude": -122.6572342,
      "houses_count": 1,
      "slug": "oregon-va-portland-health-care-system"
    },
    {
      "id": "pa-pittsburgh",
      "name": "VA Pittsburgh Healthcare System",
      "facility_name": "VA Pittsburgh Healthcare System",
      "facility_type": "va",
      "address": "University Drive C, Bldg 33",
      "city": "Pittsburgh",
      "state": "PA",
      "zip": "15240",
      "phone": "(412) 360-2030",
      "email": "heather.frantz@va.gov",
      "manager": "Heather Frantz",
      "latitude": 40.4468421,
      "longitude": -79.9619941,
      "houses_count": 1,
      "slug": "pennsylvania-va-pittsburgh-healthcare-system"
    },
    {
      "id": "sc-charleston",
      "name": "Ralph H. Johnson VA Medical Center",
      "facility_name": "Ralph H. Johnson VA Medical Center",
      "facility_type": "va",
      "address": "150 Wentworth Street",
      "city": "Charleston",
      "state": "SC",
      "zip": "29401",
      "phone": "(843) 805-8200",
      "email": "erik.zielinski@va.gov",
      "manager": "Erik Zielinski",
      "latitude": 32.7801274,
      "longitude": -79.9408243,
      "houses_count": 1,
      "slug": "south-carolina-ralph-h-johnson-va-medical-center"
    },
    {
      "id": "sc-columbia",
      "name": "William Jennings Bryan Dorn VA Medical Center",
      "facility_name": "William Jennings Bryan Dorn VA Medical Center",
      "facility_type": "va",
      "address": "6439 Garners Ferry Rd, Building 32",
      "city": "Columbia",
      "state": "SC",
      "zip": "29209",
      "phone": "(803) 647-5611",
      "email": "candler.rhodes@va.gov",
      "manager": "Candler Rhodes",
      "latitude": 33.9754462,
      "longitude": -80.9614445,
      "houses_count": 1,
      "slug": "south-carolina-william-jennings-bryan-dorn-va-medical-center"
    },
    {
      "id": "tn-memphis",
      "name": "Lt. Col. Luke Weathers Jr. VA Medical Center",
      "facility_name": "Lt. Col. Luke Weathers Jr. VA Medical Center",
      "facility_type": "va",
      "address": "1030 Jefferson Ave",
      "city": "Memphis",
      "state": "TN",
      "zip": "38104",
      "phone": "(901) 523-8990 ext. 13000",
      "email": "MemphisFisherHouse@va.gov",
      "manager": "Ashley Schoonover",
      "latitude": 35.1435753,
      "longitude": -90.0265085,
      "houses_count": 1,
      "slug": "lt-col-luke-weathers-jr-va-medical-center-memphis-tn"
    },
    {
      "id": "tn-murfreesboro",
      "name": "Tennessee Valley Healthcare System",
      "facility_name": "Tennessee Valley Healthcare System",
      "facility_type": "va",
      "address": "3400 Lebanon Pike",
      "city": "Murfreesboro",
      "state": "TN",
      "zip": "37129",
      "phone": "(615) 225-5758",
      "email": "rebecca.wood4@va.gov",
      "manager": "Becky Wood",
      "latitude": 35.9144561,
      "longitude": -86.3803538,
      "houses_count": 1,
      "slug": "tennessee-tennessee-valley-healthcare-system"
    },
    {
      "id": "tx-dallas",
      "name": "VA North Texas Health Care System",
      "facility_name": "VA North Texas Health Care System",
      "facility_type": "va",
      "address": "4500 S. Lancaster Rd., Bldg 79",
      "city": "Dallas",
      "state": "TX",
      "zip": "75216",
      "phone": "(214) 857-4400",
      "email": "lydia.henderson1@va.gov",
      "manager": "Lydia Henderson",
      "latitude": 32.6943154,
      "longitude": -96.7908491,
      "houses_count": 1,
      "slug": "texas-va-north-texas-health-care-system"
    },
    {
      "id": "tx-el-paso",
      "name": "William Beaumont Army Medical Center",
      "facility_name": "William Beaumont Army Medical Center",
      "facility_type": "military",
      "address": "Bldg 7360 Rodriguez St.",
      "city": "El Paso",
      "state": "TX",
      "zip": "79930",
      "phone": "(915) 742-1860",
      "email": "alice.m.coleman2.naf@health.mil",
      "manager": "Alice Coleman",
      "latitude": 31.8224808,
      "longitude": -106.4602271,
      "houses_count": 1,
      "slug": "texas-william-beaumont-army-medical-center"
    },
    {
      "id": "tx-fort-hood",
      "name": "Carl R. Darnall Army Medical Center",
      "facility_name": "Carl R. Darnall Army Medical Center",
      "facility_type": "military",
      "address": "Building 36015 Fisher Lane",
      "city": "Fort Hood",
      "state": "TX",
      "zip": "76544",
      "phone": "(254) 286-7927",
      "email": "leah.r.kelly3.naf@health.mil",
      "manager": "Leah Kelly",
      "latitude": 31.1268734,
      "longitude": -97.7762023,
      "houses_count": 1,
      "slug": "texas-carl-r-darnall-army-medical-center"
    },
    {
      "id": "tx-houston",
      "name": "Michael E. DeBakey VA Medical Center I, II, III",
      "facility_name": "Michael E. DeBakey VA Medical Center",
      "facility_type": "va",
      "address": "2002 Holcombe Boulevard",
      "city": "Houston",
      "state": "TX",
      "zip": "77030",
      "phone": "(713) 791-1414 ext. 228779",
      "email": "passion.sullivan@va.gov",
      "manager": "Passion Sullivan",
      "latitude": 29.7001034,
      "longitude": -95.3889654,
      "houses_count": 3,
      "slug": "texas-michael-e-debakey-va-medical-center-i-ii-iii"
    },
    {
      "id": "tx-san-antonio-army",
      "name": "Joint Base San Antonio Army Fisher Houses I, II, III, IV",
      "facility_name": "Brooke Army Medical Center",
      "facility_type": "military",
      "address": "3623 George C. Beach Road",
      "city": "Fort Sam Houston",
      "state": "TX",
      "zip": "78234",
      "phone": "(210) 916-6000",
      "email": "candice.t.ualesi.naf@health.mil",
      "manager": "Candice Ualesi",
      "latitude": 29.460187,
      "longitude": -98.4162656,
      "houses_count": 4,
      "slug": "texas-brooke-army-medical-center-san-antonio-military-medical-center-i-ii-iii-iv"
    },
    {
      "id": "tx-san-antonio-af",
      "name": "Wilford Hall Ambulatory Surgical Center I, II, III",
      "facility_name": "Wilford Hall Ambulatory Surgical Center",
      "facility_type": "military",
      "address": "1445 Foster Avenue, Bldg 3865",
      "city": "Lackland AFB",
      "state": "TX",
      "zip": "78236",
      "phone": "(210) 671-6037",
      "email": "philip.harralson@us.af.mil",
      "manager": "Philip Harralson",
      "latitude": 29.3972571,
      "longitude": -98.6142851,
      "houses_count": 3,
      "slug": "texas-wilford-hall-ambulatory-surgical-center-san-antonio-military-medical-center-i-ii-iii"
    },
    {
      "id": "tx-san-antonio-va",
      "name": "South Texas Veterans Health Care System I & II",
      "facility_name": "South Texas Veterans Health Care System",
      "facility_type": "va",
      "address": "7485 Wurzbach Rd.",
      "city": "San Antonio",
      "state": "TX",
      "zip": "78229",
      "phone": "(210) 617-5542",
      "email": "douglas.dickson@va.gov",
      "manager": "Doug Dickson",
      "latitude": 29.5073177,
      "longitude": -98.5829619,
      "houses_count": 2,
      "slug": "texas-south-texas-veterans-health-care-system"
    },
    {
      "id": "ut-salt-lake-city",
      "name": "VA Salt Lake City Health Care System",
      "facility_name": "VA Salt Lake City Health Care System",
      "facility_type": "va",
      "address": "690 S. Valdez Dr.",
      "city": "Salt Lake City",
      "state": "UT",
      "zip": "84113",
      "phone": "(801) 588-5900",
      "email": "SLCFisherHouse@va.gov",
      "manager": "Heather Dunnigan",
      "latitude": 40.7542989,
      "longitude": -111.8412549,
      "houses_count": 1,
      "slug": "utah-va-salt-lake-city-health-care-system"
    },
    {
      "id": "va-belvoir",
      "name": "Fort Belvoir Community Hospital",
      "facility_name": "Fort Belvoir Community Hospital",
      "facility_type": "military",
      "address": "9201 Woodbury Rd",
      "city": "Fort Belvoir",
      "state": "VA",
      "zip": "22060",
      "phone": "(703) 805-5203",
      "email": "tyana.m.monette2.naf@health.mil",
      "manager": "Tyana Monette",
      "latitude": 38.7093405,
      "longitude": -77.1411681,
      "houses_count": 1,
      "slug": "virginia-fort-belvoir-community-hospital-army"
    },
    {
      "id": "va-portsmouth",
      "name": "Naval Medical Center Portsmouth",
      "facility_name": "Naval Medical Center Portsmouth",
      "facility_type": "military",
      "address": "853 Fisher Drive",
      "city": "Portsmouth",
      "state": "VA",
      "zip": "23708",
      "phone": "(757) 953-6889",
      "email": "jill.j.thompson.naf@us.navy.mil",
      "manager": "Jill Thompson",
      "latitude": 36.8435,
      "longitude": -76.3091,
      "houses_count": 1,
      "slug": "virginia-naval-medical-center-portsmouth"
    },
    {
      "id": "va-richmond",
      "name": "Hunter Holmes McGuire VA Medical Center I & II",
      "facility_name": "Hunter Holmes McGuire VA Medical Center",
      "facility_type": "va",
      "address": "1201 Broad Rock Boulevard",
      "city": "Richmond",
      "state": "VA",
      "zip": "23249",
      "phone": "(804) 675-6639",
      "email": "Cynthia.Young4@va.gov",
      "manager": "Cynthia Young",
      "latitude": 37.4948178,
      "longitude": -77.4645951,
      "houses_count": 2,
      "slug": "virginia-hunter-holmes-mcguire-va-medical-center"
    },
    {
      "id": "wa-jblm",
      "name": "Joint Base Lewis-McChord at Madigan I & II",
      "facility_name": "Madigan Army Medical Center",
      "facility_type": "military",
      "address": "90700 Gardener Loop",
      "city": "Tacoma",
      "state": "WA",
      "zip": "98431",
      "phone": "(253) 967-8362",
      "email": "vattana.garcia.naf@health.mil",
      "manager": "Vattana Garcia",
      "latitude": 47.1127932,
      "longitude": -122.5508058,
      "houses_count": 2,
      "slug": "washington-joint-base-lewis-mcchord-at-madigan-army-medical-center-i-ii"
    },
    {
      "id": "wa-seattle",
      "name": "VA Puget Sound Health Care System",
      "facility_name": "VA Puget Sound Health Care System",
      "facility_type": "va",
      "address": "1660 South Columbian Way",
      "city": "Seattle",
      "state": "WA",
      "zip": "98108",
      "phone": "(206) 768-5353",
      "email": "mark.debenport@va.gov",
      "manager": "Mark Debenport",
      "latitude": 47.5645303,
      "longitude": -122.3094424,
      "houses_count": 1,
      "slug": "washington-va-puget-sound-health-care-system"
    },
    {
      "id": "wv-huntington",
      "name": "Hershel \"Woody\" Williams VA Medical Center",
      "facility_name": "Hershel \"Woody\" Williams VA Medical Center",
      "facility_type": "va",
      "address": "1540 Spring Valley Dr",
      "city": "Huntington",
      "state": "WV",
      "zip": "25704",
      "phone": "(304) 429-8700",
      "email": "jason.wyant@va.gov",
      "manager": "Jason Wyant",
      "latitude": 38.3841745,
      "longitude": -82.5165789,
      "houses_count": 1,
      "slug": "west-virginia-hershel-woody-williams-va-medical-center"
    },
    {
      "id": "wi-milwaukee",
      "name": "Clement J. Zablocki VA Medical Center",
      "facility_name": "Clement J. Zablocki VA Medical Center",
      "facility_type": "va",
      "address": "5000 W. National Ave. Bldg 150",
      "city": "Milwaukee",
      "state": "WI",
      "zip": "53295",
      "phone": "(414) 384-2000 ext. 45005",
      "email": "torrie.hutchison@va.gov",
      "manager": "Torrie Hutchison",
      "latitude": 43.0209164,
      "longitude": -87.976214,
      "houses_count": 1,
      "slug": "wisconsin-zablocki-va-medical-center"
    },
    {
      "id": "gb-birmingham",
      "name": "Queen Elizabeth Hospital Birmingham",
      "facility_name": "Queen Elizabeth Hospital Birmingham",
      "facility_type": "international",
      "address": "Mindelsohn Way, Queen Elizabeth Hospital",
      "city": "Birmingham",
      "state": null,
      "zip": "B15 2TH",
      "country": "GB",
      "phone": "0121-472-6217",
      "email": "fisherhouse@uhb.nhs.uk",
      "manager": "Patrick Hogan",
      "latitude": 52.451853,
      "longitude": -1.9430371,
      "houses_count": 1,
      "slug": "queen-elizabeth-hospital-at-birmingham"
    }
  ]
}
